STREET,CITY,REGION,ZIP,COUNTRY,LONGITUDE,LATITUDE
Avenida 20 A,Rio Claro,SP,13506-710,BR,-47.55562,-22.3998
Avenida 9,Anápolis,GO,75063-320,BR,-48.89345,-16.35252
Avenida Ademar de Barros,Goiânia,GO,74770-010,BR,-49.17473,-16.65635
Avenida Ailton Paranaíba Vilela,Três Corações,MG,37414-000,BR,-45.2391,-21.68919
Avenida Alan Charley Bull,Ituiutaba,MG,38307-168,BR,-49.48057,-18.97625
Avenida Alberto Giovannini,Ipatinga,MG,35164-546,BR,-42.55587,-19.43668
Avenida Alberto Vicente Cardoso,São Paulo,SP,05833-030,BR,-46.75741,-23.6719
Avenida Alcacibas Furtado,Viana,ES,29134-403,BR,-40.43615,-20.35417
Avenida Alfredo Gabriel Haddad,Araraquara,SP,14807-341,BR,-48.15372,-21.80633
Avenida Alfried Krupp,Campo Limpo Paulista,SP,13231-900,BR,-46.78404,-23.20658
Avenida Amélia Latorre,Jundiaí,SP,13211-000,BR,-46.9217,-23.17992
Avenida Ana Barbosa Moreira,Nova Friburgo,RJ,28616-000,BR,-42.52038,-22.30791
Avenida Angélica,São Paulo,SP,01227-200,BR,-46.6608,-23.55192
Avenida Antônio Joaquim de Alvarenga Filho,São José dos Campos,SP,12232-570,BR,-45.8916,-23.27774
Avenida Antônio Marcos da Costa,Belford Roxo,RJ,26110-070,BR,-43.36685,-22.76263
Avenida Antonio Pannellini,São Roque,SP,18135-131,BR,-47.03509,-23.53835
Avenida Antônio Perto Siqueira,Betim,MG,32641-845,BR,-44.23035,-20.02847
Avenida Antônio Trajano dos Santos,Três Lagoas,MS,79601-900,BR,-51.68036,-20.75506
Avenida Arthur Lopes de Castro,Araraquara,SP,14807-127,BR,-48.16203,-21.81133
Avenida Arthur Roque,Macapá,AP,68904-350,BR,-51.09575,0.00932
Avenida Ataíde,Salvador,BA,40411-430,BR,-38.49885,-12.94547
Avenida Ayrton Senna da Silva,Paranaguá,PR,83206-660,BR,-48.55098,-25.55053
Avenida Ayrton Senna,Parnamirim,RN,59151-901,BR,-35.20087,-5.89187
Avenida Barão dos Aymorés,São Mateus,ES,29942-462,BR,-39.87543,-18.72501
Avenida Barbacena,Belo Horizonte,MG,30190-924,BR,-43.94943,-19.93009
Avenida Barroso,Araraquara,SP,14801-165,BR,-48.19434,-21.79218
Avenida Bela Vista,Governador Valadares,MG,35051-040,BR,-41.98165,-18.87711
Avenida Belo Horizonte,Betim,MG,32672-088,BR,-44.11637,-19.95254
Avenida Benedito Alves Turíbio,Osasco,SP,06160-002,BR,-46.81976,-23.54837
Avenida Boa Vista,Niterói,RJ,24346-053,BR,-43.02918,-22.95411
Avenida Bom Jesus,Altamira,PA,68377-078,BR,-52.20976,-3.18693
Avenida Borges de Medeiros,Porto Alegre,RS,90020-023,BR,-51.22971,-30.04994
Avenida Boulevard das Esmeraldas,Goiânia,GO,74665-110,BR,-49.25735,-16.63296
Avenida Brasil,Araguari,MG,38444-240,BR,-48.2118,-18.66867
Avenida Brasil,São Luís,MA,65058-510,BR,-44.21899,-2.50661
Avenida Brasília,Curitiba,PR,81020-981,BR,-49.27526,-25.49605
Avenida Brasília,Suzano,SP,08610-100,BR,-46.30022,-23.544
Avenida Braúna,Serra,ES,29167-124,BR,-40.2514,-20.1951
Avenida Brigadeiro Eduardo Gomes,Maceió,AL,57038-230,BR,-35.69558,-9.62958
Avenida Brigadeiro Faria Lima,São Paulo,SP,04538-132,BR,-46.69442,-23.56282
Avenida Brodosqui,Foz do Iguaçu,PR,85860-310,BR,-54.56748,-25.49733
Avenida Bugavile,Santarém,PA,68020-230,BR,-54.72216,-2.4363
Avenida C2,Goiânia,GO,74265-020,BR,-49.24242,-16.55941
Avenida Cachoeira do Vale,Timóteo,MG,35184-301,BR,-42.63945,-19.54441
Avenida Caetano de Campos,Osasco,SP,06070-260,BR,-46.78243,-23.54934
Avenida Canaã,Ariquemes,RO,76875-797,BR,-63.01698,-9.91313
Avenida Cangaíba,São Paulo,SP,03711-007,BR,-46.53224,-23.50662
Avenida Capitão Noray de Paula e Silva,Araraquara,SP,14807-045,BR,-48.16527,-21.81157
Avenida Carlos Henrique Tassini,Uberlândia,MG,38401-625,BR,-48.29547,-18.87638
Avenida Carlos Mariani,Matão,SP,15990-280,BR,-48.3515,-21.60206
Avenida Castelo Branco,Cacoal,RO,76967-489,BR,-61.47686,-11.43952
Avenida Celestino Rosalino,Cacoal,RO,76960-246,BR,-61.47722,-11.42395
Avenida Celso Daniel Galvani,Barretos,SP,14781-145,BR,-48.56816,-20.52331
Avenida Central,Viana,ES,29138-333,BR,-40.4179,-20.37171
Avenida Cezar Hilal,Vitória,ES,29056-908,BR,-40.30481,-20.31162
Avenida Chica Luísa,São Paulo,SP,05183-270,BR,-46.75538,-23.44932
Avenida Chico Xavier,Sorocaba,SP,18079-720,BR,-47.48413,-23.42059
Avenida Cinco de Março,Piraí do Sul,PR,84240-970,BR,-49.93786,-24.5335
Avenida Cinco,Bauru,SP,17031-707,BR,-49.03406,-22.35624
Avenida Cláudio Besserman Vianna,Rio de Janeiro,RJ,22775-036,BR,-43.35911,-22.97268
Avenida Coca,São Paulo,SP,08030-000,BR,-46.42803,-23.50346
Avenida Coimbra,Volta Redonda,RJ,27281-332,BR,-44.1055,-22.49665
Avenida Comandante Sampaio,Osasco,SP,06192-000,BR,-46.80529,-23.52481
Avenida Conceição,São Paulo,SP,02072-001,BR,-46.60183,-23.50114
Avenida Concêntrica,Camaçari,BA,42809-051,BR,-38.32284,-12.69398
Avenida Cônego João Lima,Araguaína,TO,77823-375,BR,-48.21955,-7.18391
Avenida Conselheiro Nébias,Santos,SP,11045-901,BR,-46.32321,-23.95508
Avenida Coronel José Xavier de Mendonça,Araraquara,SP,14800-556,BR,-48.186,-21.81235
Avenida Cosme Ferreira,Manaus,AM,69089-400,BR,-59.98914,-3.09281
Avenida Cosme,Salvador,BA,40220-350,BR,-38.494,-12.9983
Avenida Cruzeiro do Norte,São Mateus,ES,29942-210,BR,-39.88374,-18.7204
Avenida Cuiabá,Cacoal,RO,76963-716,BR,-61.4534,-11.4214
Avenida Cussy de Almeida Júnior,Araçatuba,SP,16025-050,BR,-50.45187,-21.21314
Avenida da Flora,Ponta Porã,MS,79901-128,BR,-55.7473,-22.50378
Avenida da Saudade,Ribeirão Preto,SP,14080-000,BR,-47.79864,-21.15892
Avenida Darlene Conceição Correia,Teixeira de Freitas,BA,45986-024,BR,-39.76829,-17.52372
Avenida das Acácias,Betim,MG,32675-578,BR,-44.16174,-19.94239
Avenida das Acácias,Sinop,MT,78550-214,BR,-55.50924,-11.86749
Avenida das Amoreiras,Campinas,SP,13050-035,BR,-47.0919,-22.93373
Avenida das Embaúbas,Divinópolis,MG,35501-514,BR,-44.92833,-20.17583
Avenida das Figueiras,Sinop,MT,78555-148,BR,-55.54885,-11.83297
Avenida das Laranjeiras,Patos,PB,58705-650,BR,-37.28887,-7.01981
Avenida das Nações Unidas,São Paulo,SP,04795-913,BR,-46.70225,-23.62284
Avenida das Nações,Itapecerica da Serra,SP,06859-090,BR,-46.83755,-23.71788
Avenida das Palmeiras,Arujá,SP,07434-535,BR,-46.32538,-23.41792
Avenida das Palmeiras,Varginha,MG,37038-010,BR,-45.5069,-21.54082
Avenida das Virgens,Salvador,BA,40484-615,BR,-38.47627,-12.91108
Avenida Davi Mascarenhas,Parnaguá,PI,64970-970,BR,-44.63788,-10.22628
Avenida Deovair Cruz de Oliveira,Cajamar,SP,07776-435,BR,-46.83961,-23.33756
Avenida Deputado Esteves Rodrigues,Montes Claros,MG,39400-912,BR,-43.87095,-16.7212
Avenida Deputado Joviano Alvim,Poá,SP,08561-500,BR,-46.34083,-23.53092
Avenida Djanira Brandi Bertolotti,Bragança Paulista,SP,12908-420,BR,-46.54792,-22.93389
Avenida do Alípio,Rio de Janeiro,RJ,20941-210,BR,-43.19327,-22.80674
Avenida Dois,Montes Claros,MG,39403-386,BR,-43.86767,-16.77573
Avenida Dois,São Luís,MA,65054-866,BR,-44.25074,-2.5132
Avenida Dois,São Luís,MA,65073-139,BR,-44.25074,-2.5132
Avenida Dom Bosco,Cuiabá,MT,78045-370,BR,-56.10851,-15.59581
Avenida Dom Geraldo Singaudt,Missal,PR,85890-970,BR,-54.24437,-25.09278
Avenida Dom Orlando Chaves,Várzea Grande,MT,78116-130,BR,-56.10533,-15.63618
Avenida Dom Pedro II,Lages,SC,88512-000,BR,-50.3376,-27.82905
Avenida Dom Vital,Eunápolis,BA,45823-411,BR,-39.57514,-16.34064
Avenida Dona Maria Marques de Abreu,Aparecida de Goiânia,GO,74967-480,BR,-49.29362,-16.8173
Avenida dos Estados,Santo André,SP,09210-580,BR,-46.5363,-23.63433
Avenida dos Figos,Macapá,AP,68908-788,BR,-51.08987,0.08511
Avenida dos Flamboyants,Sinop,MT,78556-122,BR,-55.50727,-11.87126
Avenida dos Flamboyants,Sinop,MT,78557-640,BR,-55.49986,-11.87311
Avenida dos Franceses,São Luís,MA,65055-085,BR,-44.241,-2.57821
Avenida dos Ingás,Sinop,MT,78552-000,BR,-55.52216,-11.87136
Avenida Doutor Adhemar Pereira de Barros,Araraquara,SP,14807-083,BR,-48.16941,-21.81352
Avenida Doutor Albino Imparato,São Gonçalo,RJ,24716-454,BR,-43.00659,-22.79519
Avenida Doutor Altino Arantes,Ourinhos,SP,19900-030,BR,-49.86807,-22.97523
Avenida Doutor Belmino Correia,Camaragibe,PE,54759-901,BR,-35.00433,-8.02055
Avenida Doutor Evandro Ruivo,Itapetininga,SP,18207-700,BR,-48.07609,-23.61252
Avenida Doutor Hipólito Pinto Ribeiro,Limeira,SP,13486-321,BR,-47.37215,-22.5566
Avenida Doutor José Luis Leme Maciel,Cajamar,SP,07786-450,BR,-46.82728,-23.33325
Avenida Doutor Marcos de Paula Raphael,Bauru,SP,17026-000,BR,-49.09221,-22.3056
Avenida Doutor Mário Arantes de Almeida,Araraquara,SP,14802-030,BR,-48.18607,-21.7783
Avenida Doutor William Azzuz,Franca,SP,14409-400,BR,-47.398,-20.49656
Avenida Duque de Caxias,Teresina,PI,64006-245,BR,-42.8075,-5.02935
Avenida Edgar,Salvador,BA,40393-890,BR,-38.43794,-12.88002
Avenida Elias Yazbek,Embu das Artes,SP,06803-903,BR,-46.85209,-23.65797
Avenida Engenheiro Eusébio Stevaux,São Paulo,SP,04696-000,BR,-46.69155,-23.68138
Avenida Engenheiro Heitor Antônio Eiras Garcia,São Paulo,SP,05588-000,BR,-46.7707,-23.59981
Avenida Engenheiro Pedro Fonseca Paiva,Itajubá,MG,37504-015,BR,-45.46248,-22.42922
Avenida Engenheiro Plínio de Queiróz,Cubatão,SP,11570-000,BR,-46.37843,-23.8411
Avenida Engenheiro Roberto Freire,Natal,RN,59078-972,BR,-35.20849,-5.84829
Avenida Farias Brito,Fortaleza,CE,60160-240,BR,-38.49215,-3.81819
Avenida Felice Zambon,Matão,SP,15990-568,BR,-48.36326,-21.61396
Avenida Felício Mota,Malacacheta,MG,39691-970,BR,-41.97011,-17.78966
Avenida Fioravante Rossi,Colatina,ES,29703-041,BR,-40.67538,-19.53418
Avenida Francisco Ribeiro Júnior,Itabuna,BA,45600-100,BR,-39.27146,-14.78724
Avenida Frederick Hoffmann,São Paulo,SP,03693-040,BR,-46.48027,-23.5294
Avenida Frei Henrique de Coimbra,Rondonópolis,MT,78710-380,BR,-54.65266,-16.44087
Avenida Gabriel Henrique de Araújo,Goiânia,GO,74484-010,BR,-49.3537,-16.6967
Avenida Galeão Coutinho,São Vicente,SP,11365-000,BR,-46.39303,-23.94141
Avenida General Carlos Guedes,Belo Horizonte,MG,31720-500,BR,-43.94815,-19.83762
Avenida General Osório,Macapá,AP,68908-127,BR,-51.05052,0.04758
Avenida Geraldo Athayde,Montes Claros,MG,39400-622,BR,-43.8596,-16.71823
Avenida Geruza Alves da Silva,São Lourenço da Mata,PE,54737-590,BR,-35.01997,-7.9985
Avenida Getúlio Vargas,Porto Alegre,RS,90150-004,BR,-51.22284,-30.05767
Avenida Ghande,Belo Horizonte,MG,30882-662,BR,-44.01656,-19.87572
Avenida Goiânia,Serra,ES,29171-201,BR,-40.24952,-20.13867
Avenida Goiás,Goiânia,GO,74050-100,BR,-49.26361,-16.65279
Avenida Goiás,São Caetano do Sul,SP,09550-051,BR,-46.54974,-23.62137
Avenida Gonçalves Gatto,Belford Roxo,RJ,26130-230,BR,-43.4049,-22.76976
Avenida Governador Leonel de Moura Brizola,Duque de Caxias,RJ,25010-008,BR,-43.32396,-22.71956
Avenida Green Park,Rio Verde,GO,75909-812,BR,-50.94483,-17.77708
Avenida Guanabara,Magé,RJ,25907-602,BR,-43.02323,-22.58796
Avenida Guanambi,Vitória da Conquista,BA,45051-445,BR,-40.85642,-14.86048
Avenida Guaporé,Araguaína,TO,77817-620,BR,-48.20814,-7.19197
Avenida Guiomar Novaes,Marília,SP,17512-100,BR,-49.96183,-22.15779
Avenida Hélio de Souza Leão,Aracaju,SE,49026-209,BR,-37.07446,-10.90921
Avenida Hildebrando de Souza Filho,Barretos,SP,14784-339,BR,-48.56617,-20.57327
Avenida Ida Bianchi,Sinop,MT,78559-794,BR,-55.49215,-11.92992
Avenida Inácio Tosta Filho,Itabuna,BA,45600-150,BR,-39.2789,-14.79133
Avenida Independência,Valinhos,SP,13276-030,BR,-46.99851,-22.97835
Avenida Industrial,Jales,SP,15703-362,BR,-50.54213,-20.2906
Avenida Internacional,Osasco,SP,06126-000,BR,-46.79482,-23.55373
Avenida Ireré,São Paulo,SP,04064-004,BR,-46.6461,-23.6268
Avenida Irmã Bernada,Rondonópolis,MT,78714-240,BR,-54.63875,-16.43694
Avenida Itororó,Sarandi,PR,87114-270,BR,-51.87351,-23.44492
Avenida Jaime Canet,Xambrê,PR,87535-970,BR,-53.49028,-23.732
Avenida Jairo Mendonça Bahia,São Mateus,ES,29938-220,BR,-39.85978,-18.72237
Avenida Jerônimo Monteiro,Vila Velha,ES,29100-401,BR,-40.29698,-20.33529
Avenida Jesus Vilanova Vidal,São José do Rio Preto,SP,15020-060,BR,-49.40507,-20.81745
Avenida João Gregolin,Birigui,SP,16201-491,BR,-50.3216,-21.26177
Avenida João Pedro II,Angra dos Reis,RJ,23912-440,BR,-44.2646,-22.99835
Avenida João Ricardo Haddad,Guarapari,ES,29215-445,BR,-40.49899,-20.67226
Avenida João Rossi,Araras,SP,13605-300,BR,-47.34531,-22.34059
Avenida João XXIII,Rondonópolis,MT,78720-810,BR,-54.62343,-16.43959
Avenida Joaquim Duarte Moleirinho,Maringá,PR,87060-684,BR,-51.94141,-23.46208
Avenida John Boyd Dunlop,Campinas,SP,13032-377,BR,-47.09266,-22.90978
Avenida Jones dos Santos Neves,São Mateus,ES,29930-972,BR,-39.85865,-18.72406
Avenida Jorge Olegário de Almeida Abreu,Barretos,SP,14783-000,BR,-48.57505,-20.55065
Avenida Jornalista Assis Chateaubriand,Campina Grande,PB,58400-403,BR,-35.88782,-7.23329
Avenida José de Alencar,Vitória da Conquista,BA,45008-825,BR,-40.82294,-14.84806
Avenida José Manoel Ribeiro,Pirassununga,SP,13632-160,BR,-47.41012,-22.00368
Avenida José Martins Miranda,Itumbiara,GO,75535-030,BR,-49.23503,-18.42794
Avenida José Vieira Caúla,Porto Velho,RO,76820-148,BR,-63.87832,-8.75659
Avenida Juscelino Kubitschek de Oliveira,Curitiba,PR,81460-000,BR,-49.30343,-25.54436
Avenida Lauro Sodré,Porto Velho,RO,76803-488,BR,-63.90259,-8.74248
Avenida Leitão da Silva,Vitória,ES,29056-184,BR,-40.30362,-20.30182
Avenida Litorânea,São Luís,MA,65076-641,BR,-44.27076,-2.48698
Avenida Lúcio Costa,Rio de Janeiro,RJ,22630-010,BR,-43.32514,-23.01147
Avenida Luiz Diogo Ferraz,Paranavaí,PR,87703-532,BR,-52.45162,-23.08403
Avenida Machadinho,Ariquemes,RO,76873-642,BR,-63.03464,-9.89429
Avenida Madre Maria dos Anjos,Anápolis,GO,75110-430,BR,-48.93673,-16.33842
Avenida Major Roberto dos Santos,São Paulo,SP,02224-010,BR,-46.57557,-23.4844
Avenida Mamoré,Porto Velho,RO,76812-899,BR,-63.83979,-8.79318
Avenida Manoel Parada de Carvalho,Valparaíso,SP,16880-970,BR,-50.86845,-21.22498
Avenida Manoel Pereira,Marília,SP,17526-000,BR,-49.97936,-22.2426
Avenida Manoel Ribas,Cruz Machado,PR,84620-970,BR,-51.34563,-26.01536
Avenida Manoel Tavares de Campos,Araraquara,SP,14805-423,BR,-48.18965,-21.76067
Avenida Maranhão,Cianorte,PR,87208-104,BR,-52.61032,-23.67325
Avenida Marechal Câmara,Rio de Janeiro,RJ,20020-901,BR,-43.16965,-22.90878
Avenida Maria José Lyra,Caruaru,PE,55026-075,BR,-35.95021,-8.29648
Avenida Marina Gonçalves Gomes,Ribeirão das Neves,MG,33883-030,BR,-44.05852,-19.80171
Avenida Marinha,Campo Grande,MS,79097-210,BR,-54.67143,-20.53705
Avenida Miguel José de Melo,Caruaru,PE,55021-460,BR,-35.99674,-8.27575
Avenida Minas Bahia,Teixeira de Freitas,BA,45989-476,BR,-39.75385,-17.55072
Avenida Minas Gerais,Araguari,MG,38440-042,BR,-48.18623,-18.65211
Avenida Minas Gerais,Vitória da Conquista,BA,45051-400,BR,-40.85754,-14.86272
Avenida Ministro Albuquerque Lima,Fortaleza,CE,60533-692,BR,-38.61017,-3.76724
Avenida Mônaco,Guarulhos,SP,07150-050,BR,-46.46244,-23.4196
Avenida Monteiro Lobato,Ribeirão Preto,SP,14031-243,BR,-47.83887,-21.19737
Avenida N,Fortaleza,CE,60349-720,BR,-38.48315,-3.85972
Avenida Nair Galhardoni,Mogi Guaçu,SP,13841-150,BR,-46.91755,-22.37369
Avenida Nenem Napoleão,Lagoinha do Piauí,PI,64465-970,BR,-42.62347,-5.83294
Avenida Níquel,Xinguara,PA,68557-550,BR,-49.94577,-7.11259
Avenida Nossa Senhora Aparecida,Juazeiro do Norte,CE,63051-170,BR,-39.31231,-7.23129
Avenida Nossa Senhora da Aparecida,Jataí,GO,75807-250,BR,-51.69644,-17.87342
Avenida Nossa Senhora da Penha,Cariacica,ES,29141-876,BR,-40.39047,-20.28151
Avenida Nossa Senhora das Graças,São Vicente,SP,11390-080,BR,-46.37633,-23.96531
Avenida Nossa Senhora de Fátima,Belo Horizonte,MG,30410-610,BR,-43.95377,-19.91498
Avenida Olímpio Bezerra de Arruda,Santa Cruz do Capibaribe,PE,55191-597,BR,-36.19853,-7.95443
Avenida Padre Anchieta,Teixeira de Freitas,BA,45992-090,BR,-39.74298,-17.55431
Avenida Paraguai,Betim,MG,32603-888,BR,-44.20443,-19.95379
Avenida Paraíba,Rondonópolis,MT,78718-010,BR,-54.62189,-16.45437
Avenida Parnamirim,Recife,PE,52060-901,BR,-34.90838,-8.03464
Avenida Parque dos Pássaros,Parnamirim,RN,59154-175,BR,-35.21941,-5.91127
Avenida Paulista,São Paulo,SP,01311-914,BR,-46.66122,-23.55742
Avenida Pedro Wanderley Fernandes,Macapá,AP,68909-011,BR,-51.04128,0.08652
Avenida Perimetral,Arujá,SP,07432-435,BR,-46.36735,-23.4249
Avenida Pinheiros,Anápolis,GO,75090-130,BR,-48.91142,-16.31143
Avenida Pioneira Devige Crepaldi Schiavoni,Maringá,PR,87025-820,BR,-51.92923,-23.37482
Avenida Ponta Grossa,Guaratuba,PR,83280-970,BR,-48.57245,-25.8805
Avenida Porcino dos Santos,São Paulo,SP,03807-160,BR,-46.46811,-23.49854
Avenida Portugal,Cabreúva,SP,13315-971,BR,-47.09496,-23.25687
Avenida Portugal,Cuiabá,MT,78040-300,BR,-56.12385,-15.58765
Avenida Prefeito Acácio Garibaldi S. Thiago,Florianópolis,SC,88062-600,BR,-48.44782,-27.62801
Avenida Presidente Castelo Branco,Praia Grande,SP,11700-805,BR,-46.5047,-24.04191
Avenida Presidente Emílio Garrastazu Médici,Linhares,ES,29902-208,BR,-40.05766,-19.3845
Avenida Presidente Itamar Franco,Juiz de Fora,MG,36010-021,BR,-43.34606,-21.76336
Avenida Presidente Juscelino Kubitschek,Jales,SP,15700-214,BR,-50.54867,-20.26823
Avenida Presidente Kennedy,Barra Mansa,RJ,27325-001,BR,-44.14258,-22.53228
Avenida Presidente Kennedy,Teresina,PI,64052-345,BR,-42.77001,-5.06544
Avenida Primo Meneghetti,Franca,SP,14402-465,BR,-47.3496,-20.51714
Avenida Principal,Governador Jorge Teixeira,RO,76898-971,BR,-62.7356,-10.6135
Avenida Principal,Sinop,MT,78559-337,BR,-55.49647,-11.89742
Avenida Professor Adolfo Pinheiro Machado,Botucatu,SP,18611-440,BR,-48.45373,-22.8581
Avenida Professor Francisco Morato,São Paulo,SP,05520-300,BR,-46.74708,-23.60576
Avenida Professor Joaquim Barreto,Cotia,SP,06700-170,BR,-46.94682,-23.60705
Avenida Projetada,Presidente Prudente,SP,19066-295,BR,-51.3068,-21.96144
Avenida Projetada,São Luís,MA,65047-390,BR,-44.22232,-2.51171
Avenida Prudente de Morais,Uberaba,MG,38026-250,BR,-47.92116,-19.7612
Avenida Raimundo de Matos,Rondonópolis,MT,78700-350,BR,-54.64418,-16.47182
Avenida Raimundo Pereira de Magalhães,São Paulo,SP,05145-901,BR,-46.72233,-23.4468
Avenida Rainha do Mar,Campo Grande,MS,79083-840,BR,-54.63596,-20.50034
Avenida Recanto Quadra 205,Brasília,DF,72610-535,BR,-48.09664,-15.91304
Avenida Rio Branco,Corumbá,MS,79304-902,BR,-57.64127,-19.00153
Avenida Rio Branco,Londrina,PR,86070-010,BR,-51.17346,-23.29679
Avenida Rodrigo Otávio,Manaus,AM,69080-900,BR,-59.99844,-3.14616
Avenida Romão Fidalgo Salgado Neto,Guarujá,SP,11445-450,BR,-46.1876,-23.94812
Avenida Rondon Pacheco,Uberlândia,MG,38400-015,BR,-48.26686,-18.91889
Avenida Rui Barbosa,Recife,PE,52011-905,BR,-34.90344,-8.04102
Avenida Said Azzem,Araraquara,SP,14806-332,BR,-48.1559,-21.72772
Avenida Salum Assad David,Varginha,MG,37062-650,BR,-45.44701,-21.5791
Avenida Salvador Coelho,Brasília,DF,73330-042,BR,-47.66175,-15.62668
Avenida Sanitária,Itaúna,MG,35681-073,BR,-44.60973,-20.09894
Avenida Santa Catarina,São Paulo,SP,04378-000,BR,-46.66462,-23.64508
Avenida Santa Maria,Goiânia,GO,74486-470,BR,-49.32884,-16.67781
Avenida São José,Lorena,SP,12600-560,BR,-45.12432,-22.73692
Avenida São José,Salvador,BA,40470-374,BR,-38.4817,-12.9203
Avenida Sebastião Correia Lira,Boa Vista,RR,69317-472,BR,-60.75156,2.84684
Avenida Sebastião Herculano de Souza,Jataí,GO,75802-202,BR,-51.7292,-17.92123
Avenida Segunda Avenida Bloco 820,Brasília,DF,71715-020,BR,-47.96525,-15.86845
Avenida Segunda Radial,Goiânia,GO,74850-040,BR,-49.24216,-16.71497
Avenida Senador Atílio Fontana,Rondonópolis,MT,78745-800,BR,-54.66292,-16.4755
Avenida Senador Augusto Meira,Santarém,PA,68015-410,BR,-54.69621,-2.44007
Avenida Senador Feijó,Santos,SP,11015-501,BR,-46.32589,-23.93827
Avenida Senador Júlio Leite,Aracaju,SE,49037-580,BR,-37.07179,-10.98786
Avenida Senador Roberto Simonsen,Suzano,SP,08671-035,BR,-46.32343,-23.54182
Avenida Senador Salgado Filho,Natal,RN,59015-000,BR,-35.20686,-5.84929
Avenida Sérgio de Moura Pinto,São João de Meriti,RJ,25585-522,BR,-43.3651,-22.8017
Avenida Serra Branca,Guarulhos,SP,07224-050,BR,-46.4841,-23.4635
Avenida Sílvio de Castro Ribeiro,Aparecida de Goiânia,GO,74983-620,BR,-49.27502,-16.74822
Avenida T 9,Goiânia,GO,74310-320,BR,-49.28032672727272,-16.651571818181818
Avenida Tabajaras,Tupã,SP,17601-120,BR,-50.50951,-21.93104
Avenida Tamandaré,Campo Grande,MS,79117-010,BR,-54.62833,-20.43646
Avenida Tapajós,Santarém,PA,68040-445,BR,-54.72946,-2.41891
Avenida Terceiro Mundo,Serra,ES,29163-478,BR,-40.22587,-20.21897
Avenida Tiradentes,Matão,SP,15997-080,BR,-48.35947,-21.59607
Avenida Três,Sumaré,SP,13180-171,BR,-47.1993,-22.84579
Avenida Trumain,São Paulo,SP,03366-000,BR,-46.53609,-23.56641
Avenida Tupi,Pato Branco,PR,85501-065,BR,-52.67465,-26.21319
Avenida Ub-31,São José dos Campos,SP,12244-511,BR,-45.95283,-23.20308
Avenida Ubaldo Aurélio Teixeira,Salvador,BA,40313-585,BR,-38.48434,-12.96674
Avenida Uberaba,Itaquaquecetuba,SP,08573-070,BR,-46.35555,-23.49471
Avenida União do Norte,Sinop,MT,78554-082,BR,-55.51248,-11.81414
Avenida Vale Azul,Sarandi,PR,87115-990,BR,-51.90643,-23.47988
Avenida Vela Olímpica,Sorocaba,SP,18087-350,BR,-47.35783,-23.42818
Avenida Vicente Catalani,Itatiba,SP,13256-970,BR,-46.87279,-23.00861
Avenida Vicente Gullo,Araraquara,SP,14807-214,BR,-48.16409,-21.80289
Avenida Vicente Machado,Curitiba,PR,80440-020,BR,-49.29798,-25.44157
Avenida Vila Vintém,Salvador,BA,41630-176,BR,-38.36072,-12.94759
Avenida Vinte e Sete,São Paulo,SP,04433-150,BR,-46.66283,-23.68796
Avenida Vitória,Vitória,ES,29050-800,BR,-40.30521,-20.31052
Avenida Volta Redonda,Caxias,MA,65606-730,BR,-43.35083,-4.88158
Avenida Volta Redonda,Cianorte,PR,87207-060,BR,-52.61482,-23.67523
Avenida Washington Luiz,Marília,SP,17511-190,BR,-49.95955,-22.18259
Avenida Yolanda Ferreira Breda,Jundiaí,SP,13218-300,BR,-46.85713,-23.18681
Avenida Zezinho Lamartine,Gravatá,PE,55643-204,BR,-35.54259,-8.19511
Rua 08,São Luís,MA,65058-037,BR,-44.30253,-2.50754
Rua 1,Araguaína,TO,77820-080,BR,-48.22996,-7.23704
Rua 1,Brasília,DF,71070-501,BR,-48.02791,-15.75247
Rua 1,Brasília,DF,71730-110,BR,-47.88372,-15.69563
Rua 1,Rio Verde,GO,75909-575,BR,-50.92297,-17.7973
Rua 10 Unidade 203,Goiânia,GO,74890-260,BR,-49.17712,-16.64494
Rua 10,Formosa,GO,73808-765,BR,-47.312484,-15.527808
Rua 10,São Luís,MA,65058-296,BR,-44.30253,-2.50754
Rua 101,Aparecida de Goiânia,GO,74940-200,BR,-49.19352,-16.77414
Rua 101,Valparaíso de Goiás,GO,72871-101,BR,-48.0168,-16.05464
Rua 1076,Fortaleza,CE,60533-130,BR,-38.44322,-3.76458
Rua 108,Campo Grande,MS,79104-210,BR,-54.62565,-20.43278
Rua 11,Goiânia,GO,74403-140,BR,-49.25921,-16.67475
Rua 11,Rio Verde,GO,75906-346,BR,-50.92292522777235,-17.79731492407588
Rua 1133,Fortaleza,CE,60533-400,BR,-38.44322,-3.76458
Rua 12,Araguaína,TO,77815-290,BR,-48.22996,-7.23704
Rua 12,Manaus,AM,69067-160,BR,-59.99628,-3.12337
Rua 12A,Rio Verde,GO,75900-067,BR,-50.49075,-17.97036
Rua 12A,Rio Verde,GO,75902-639,BR,-50.49075,-17.97036
Rua 13,Anápolis,GO,75114-350,BR,-48.95295,-16.32866
Rua 13,Araguaína,TO,77825-190,BR,-48.22996,-7.23704
Rua 131,Goiânia,GO,74093-200,BR,-49.25921,-16.67475
Rua 133,Aparecida de Goiânia,GO,74965-340,BR,-49.19352,-16.77414
Rua 14,Valparaíso de Goiás,GO,72870-630,BR,-47.99282,-16.05164
Rua 1451,Balneário Camboriú,SC,88330-801,BR,-48.63599,-26.9916
Rua 15 de Outubro,Catalão,GO,75711-610,BR,-47.9423,-18.17382
Rua 15-A,Maceió,AL,57062-654,BR,-35.71888,-9.581
Rua 15,Goiânia,GO,74805-580,BR,-49.25921,-16.67475
Rua 15,Manaus,AM,69099-832,BR,-59.99628,-3.12337
Rua 16,Luziânia,GO,72851-355,BR,-47.94039,-16.15114
Rua 2 de Julho,Luziânia,GO,72812-565,BR,-47.94039,-16.15114
Rua 20,Rio Verde,GO,75905-313,BR,-50.92297,-17.7973
Rua 203 SO,São Luís,MA,65058-128,BR,-44.21215,-2.60695
Rua 21,Itumbiara,GO,75526-180,BR,-49.2076,-18.40338
Rua 22,Luziânia,GO,72816-220,BR,-47.94039,-16.15114
Rua 23,Rio Claro,SP,13503-008,BR,-47.57893,-22.40347
Rua 23,São Luís,MA,65058-343,BR,-44.30253,-2.50754
Rua 230,Goiânia,GO,74655-195,BR,-49.25921,-16.67475
Rua 24 de Maio,São Bernardo do Campo,SP,09625-000,BR,-46.51982,-23.77525
Rua 24,Anápolis,GO,75074-230,BR,-48.95295,-16.32866
Rua 24,Anápolis,GO,75085-697,BR,-48.95295,-16.32866
Rua 25,Rio Verde,GO,75906-488,BR,-50.922847154936,-17.797298140847303
Rua 251-A,Goiânia,GO,74610-171,BR,-49.30258,-16.60055
Rua 27-B,Goiânia,GO,74354-020,BR,-49.2396,-16.69569
Rua 28,Luziânia,GO,72851-640,BR,-47.94039,-16.15114
Rua 3 de Março,Santo André,SP,09090-503,BR,-46.53172,-23.65639
Rua 30,Aparecida de Goiânia,GO,74919-230,BR,-49.19352,-16.77414
Rua 305,Goiânia,GO,74063-420,BR,-49.25921,-16.67475
Rua 309,Fortaleza,CE,60530-600,BR,-38.44322,-3.76458
Rua 31,Rio Verde,GO,75906-427,BR,-50.9228137239488,-17.797286512677843
Rua 4 de Abril,Manaus,AM,69059-450,BR,-59.99628,-3.12337
Rua 4 RF,Rio Claro,SP,13506-273,BR,-47.52413,-22.36704
Rua 4,Anápolis,GO,75095-630,BR,-48.95295,-16.32866
Rua 4,Cuiabá,MT,78089-724,BR,-56.12423,-15.56411
Rua 49,Goiânia,GO,74810-095,BR,-49.25921,-16.67475
Rua 4D,São Luís,MA,65058-246,BR,-44.21411,-2.53637
Rua 5 A,Aparecida de Goiânia,GO,74923-051,BR,-49.19352,-16.77414
Rua 5 RV,Rio Claro,SP,13506-136,BR,-47.56281,-22.41175
Rua 51 A,Aparecida de Goiânia,GO,74966-020,BR,-49.19352,-16.77414
Rua 54,Araguaína,TO,77815-730,BR,-48.22996,-7.23704
Rua 57,Goiânia,GO,74045-060,BR,-49.25921,-16.67475
Rua 6 de Junho,Santo André,SP,09090-506,BR,-46.53172,-23.65639
Rua 6,Jataí,GO,75807-130,BR,-51.72366,-17.88407
Rua 6,Sinop,MT,78559-603,BR,-55.5312,-11.90031
Rua 604,Catalão,GO,75712-360,BR,-47.9423,-18.17382
Rua 7 A,Rio Claro,SP,13506-726,BR,-47.55092,-22.38555
Rua 7 de Setembro,Parintins,AM,69151-464,BR,-56.73404,-2.62717
Rua 7,Quixadá,CE,63901-210,BR,-39.01614,-4.97159
Rua 71,Gurupi,TO,77415-570,BR,-49.07526,-11.74506
Rua 72,Valparaíso de Goiás,GO,72872-368,BR,-48.02068,-16.08698
Rua 8 de Dezembro,Salvador,BA,41185-515,BR,-38.45815,-12.86819
Rua 8-A,Maceió,AL,57072-037,BR,-35.74863,-9.61682
Rua 8-B,Goiânia,GO,74463-520,BR,-49.3491,-16.6507
Rua 9,Anápolis,GO,75075-360,BR,-48.95295,-16.32866
Rua 9,Goiânia,GO,74740-590,BR,-49.25921,-16.67475
Rua A,Duque de Caxias,RJ,25213-150,BR,-43.27237,-22.65052
Rua A,Governador Valadares,MG,35039-770,BR,-41.99547,-18.88793
Rua A,Ipatinga,MG,35162-770,BR,-42.52694,-19.46999
Rua A,Itabuna,BA,45600-778,BR,-39.3001,-14.79785
Rua A,Salvador,BA,41299-060,BR,-38.33002,-12.9376
Rua A,Teresina,PI,64032-114,BR,-42.76897,-5.18348
Rua Abadia Mafalda Pereira Souza,Campo Grande,MS,79062-320,BR,-54.57361,-20.51
Rua Abaetés,Macaé,RJ,27959-860,BR,-41.76286,-22.34568
Rua Abcília Francisca Caetano,Goiânia,GO,74461-220,BR,-49.34695,-16.65806
Rua Abel Conceição,Ribeirão Preto,SP,14031-276,BR,-47.83419,-21.20447
Rua Abelard José Tolentino,Montes Claros,MG,39402-432,BR,-43.8536,-16.75229
Rua Abelardo Cardoso,Maceió,AL,57051-010,BR,-35.73171,-9.65447
Rua Abelardo Cunha,Campos dos Goytacazes,RJ,28080-450,BR,-41.32336,-21.74751
Rua Abigail Zeni Nader,Campinas,SP,13054-500,BR,-47.12381,-22.98034
Rua Abrolhos,Guarapari,ES,29221-210,BR,-40.45749,-20.6189
Rua Acácia Amarela,Salvador,BA,41502-310,BR,-38.35509,-12.8989
Rua Acácia,Itaguaí,RJ,23831-490,BR,-43.78925,-22.69711
Rua Acadêmico Joca Miguel de Matos,Teresina,PI,64057-660,BR,-42.73382,-5.05324
Rua Acadêmico Rodrigo Garcia Teixeira,Ponta Porã,MS,79904-536,BR,-55.72621,-22.53701
Rua Açafrão,Ipatinga,MG,35162-313,BR,-42.53638,-19.46694
Rua Acari,São Paulo,SP,04730-080,BR,-46.722,-23.64069
Rua Acesita,João Monlevade,MG,35930-215,BR,-43.1694,-19.80271
Rua Acre,Sorocaba,SP,18040-080,BR,-47.47358,-23.50158
Rua Adalberto Avelar,Divinópolis,MG,35500-803,BR,-44.86749,-20.13735
Rua Adalgiza Fleury,Manaus,AM,69086-480,BR,-59.9355,-3.0766
Rua Adália,Caraguatatuba,SP,11669-350,BR,-45.44372,-23.70173
Rua Adão Koboski,São José dos Pinhais,PR,83050-410,BR,-49.17871,-25.50599
Rua Adão Rolon,Foz do Iguaçu,PR,85862-447,BR,-54.50941,-25.47784
Rua Adão Soares da Silva,Campinas,SP,13049-127,BR,-47.07767,-22.93702
Rua Adauto de Assis,São Paulo,SP,03516-060,BR,-46.52627,-23.54264
Rua Adauto Pereira de Souza,Paulo Afonso,BA,48611-114,BR,-38.20873,-9.45105
Rua Adelaide Bernadete,Paragominas,PA,68627-454,BR,-47.37291,-2.99283
Rua Adelino Crispiliano,Hortolândia,SP,13184-695,BR,-46.90777,-23.17099
Rua Ademar Bontorin,Colombo,PR,83403-250,BR,-49.21238,-25.35132
Rua Ademar de Costa,Criciúma,SC,88805-248,BR,-49.40619,-28.69423
Rua Ademar Hussmann,São Bento do Sul,SC,89286-706,BR,-49.44306,-26.24167
Rua Aderaldo Ferreira de Araújo,Quixadá,CE,63908-763,BR,-39.01371,-4.96374
Rua Aderson Dutra,Mossoró,RN,59607-590,BR,-37.37493,-5.20281
Rua Adilson Bacin,Lages,SC,88513-665,BR,-50.34242,-27.85799
Rua Adilson Brito,São Paulo,SP,05831-010,BR,-46.74868,-23.67506
Rua Adinir Irineu de Gaspari,Limeira,SP,13481-104,BR,-47.40484,-22.60074
Rua Adolfo Matthiensen,Araras,SP,13601-356,BR,-47.38751,-22.37622
Rua Adriana Norberta,Belo Horizonte,MG,30512-001,BR,-44.0012,-19.94462
Rua Adriano,Nova Iguaçu,RJ,26280-020,BR,-43.4872,-22.74248
Rua Afonsina,São Bernardo do Campo,SP,09633-000,BR,-46.56828,-23.65454
Rua Afonso Agra Filho,Campina Grande,PB,58406-135,BR,-35.87022,-7.21332
Rua Afonso Cavalcanti,Rio de Janeiro,RJ,20211-984,BR,-43.20686,-22.91115
Rua Afonso de Souza,Campo Grande,MS,79117-391,BR,-54.63096,-20.54962
Rua Afonso Pena,Campo Limpo Paulista,SP,13236-060,BR,-46.7964,-23.20841
Rua África,Taboão da Serra,SP,06756-430,BR,-46.77707,-23.60469
Rua Ágata de Fogo,Manaus,AM,69075-483,BR,-59.94744,-3.12257
Rua Agenor Cruz,Sorocaba,SP,18052-826,BR,-47.48501,-23.54061
Rua Agenor Lopes Cancado,Contagem,MG,32235-070,BR,-44.03397,-19.97856
Rua Agnaldo Macedo,Campinas,SP,13044-000,BR,-47.03807,-22.94119
Rua Agostinho Fornetti,Bauru,SP,17063-430,BR,-49.09143,-22.30971
Rua Agricolândia,Natal,RN,59108-370,BR,-35.26487,-5.7644
Rua Água Branca,Vitória de Santo Antão,PE,55610-340,BR,-35.28659,-8.10261
Rua Águas do Araxá,Araxá,MG,38184-518,BR,-46.94916,-19.64377
Rua Águas Finas,Jaboatão dos Guararapes,PE,54490-355,BR,-35.02046,-8.10662
Rua Águas Marinhas,Contagem,MG,32183-295,BR,-44.02874,-19.85758
Rua Águas Verdes,Cotia,SP,06706-205,BR,-46.86508,-23.57783
Rua Aída Gomes Toledo,São Paulo,SP,02472-050,BR,-46.65702,-23.47565
Rua Aimoré,Pato Branco,PR,85504-038,BR,-52.66711,-26.21953
Rua Alagoas,Aparecida de Goiânia,GO,74944-020,BR,-49.325,-16.79749
Rua Alagoas,Passos,MG,37900-193,BR,-46.60541,-20.71495
Rua Alamiro Augusto Silva,Varginha,MG,37030-460,BR,-45.44849,-21.53937
Rua Alberico Borges,Anápolis,GO,75143-260,BR,-48.97153,-16.33592
Rua Albertina Pimentel,Campo Grande,MS,79017-061,BR,-54.56654,-20.39115
Rua Alberto Cerqueira Leite,Araçatuba,SP,16022-190,BR,-50.46675,-21.23362
Rua Albino Rodrigues de Almeida,Ribeirão Preto,SP,14056-711,BR,-47.85063,-21.14964
Rua Alcebíades Chicaroni,Atibaia,SP,12943-380,BR,-46.56651,-23.13264
Rua Alcides Fernandes Carvalho,Campinas,SP,13087-551,BR,-47.14708,-22.8878
Rua Alduíno Machado,Cascavel,PR,85804-670,BR,-53.51173,-24.98734
Rua Alecrim,Campo Mourão,PR,87301-501,BR,-52.36668,-24.06031
Rua Alegre,Cariacica,ES,29143-230,BR,-40.39683,-20.33559
Rua Alenquer,São José dos Campos,SP,12235-800,BR,-45.9127,-23.25064
Rua Alessandro Oliveira Porto,Aracaju,SE,49045-750,BR,-37.07015,-10.93491
Rua Alexandre Alves de Almeida,Recife,PE,52031-465,BR,-34.95232,-8.02261
Rua Alexandre da Silva,Joinville,SC,89215-425,BR,-48.90634,-26.3286
Rua Alexandre Guimarães,Porto Velho,RO,76804-412,BR,-63.89011,-8.77079
Rua Alexandre Herculano,Americana,SP,13469-010,BR,-47.34699,-22.74457
Rua Alexandre Repani,Magé,RJ,25900-403,BR,-43.02722,-22.63116
Rua Alfazema,Ipatinga,MG,35162-308,BR,-42.57391,-19.46987
Rua Alfredo Condeixa,Ribeirão Preto,SP,14031-383,BR,-47.8457,-21.19822
Rua Alfredo Fenner,Londrina,PR,86058-284,BR,-51.20671,-23.36452
Rua Alfredo Guedes,Piracicaba,SP,13419-285,BR,-47.64677,-22.73863
Rua Alfredo Leitão,Jaú,SP,17205-080,BR,-48.56829,-22.29113
Rua Alfredo Maluf,Santa Bárbara D'Oeste,SP,13450-227,BR,-47.41764,-22.75269
Rua Alfredo Marcondes,Cajamar,SP,07786-770,BR,-46.82915,-23.33763
Rua Alfredo Ponciano,Navegantes,SC,88371-415,BR,-48.68451,-26.87578
Rua Alice Gomes Teixeira,Betim,MG,32667-452,BR,-44.13696,-19.95877
Rua Alice Vilas Boas da Conceição,Curitiba,PR,81590-440,BR,-49.20416,-25.48782
Rua Alípio de Sousa,São Paulo,SP,02201-020,BR,-46.59127,-23.48573
Rua Alípio Manoel dos Santos,Ilhéus,BA,45656-070,BR,-39.04756,-14.78782
Rua Allan Kardeck,Nova Friburgo,RJ,28620-120,BR,-42.54123,-22.31026
Rua Alma do Tempo,Serra,ES,29173-005,BR,-40.19982,-20.20504
Rua Almeida Garret,Salvador,BA,41815-320,BR,-38.46231,-12.99793
Rua Almeida Lara,Goiânia,GO,74450-380,BR,-49.31871,-16.65623
Rua Almerinda Veloso da Cunha,São Gonçalo,RJ,24738-807,BR,-42.93512,-22.85543
Rua Almerio José de Souza,Patos de Minas,MG,38705-164,BR,-46.50351,-18.59561
Rua Almirante Barroso,Campina Grande,PB,58416-170,BR,-35.91104,-7.24625
Rua Almirante Brasil,São Paulo,SP,03164-120,BR,-46.60863,-23.5491
Rua Almirante Moraes Rego,Santos,SP,11030-170,BR,-46.29572,-23.98632
Rua Aloísio Wippel,Blumenau,SC,89040-280,BR,-49.12309,-26.93009
Rua Aluízio de Queiroz Melo,Patos,PB,58704-370,BR,-37.28605,-7.01992
Rua Aluízio Ferreira,Ji-Paraná,RO,76900-024,BR,-61.95202,-10.88764
Rua Aluysio Simões,Vitória,ES,29050-637,BR,-40.31202,-20.31157
Rua Alvarenga Peixoto,Itaquaquecetuba,SP,08598-412,BR,-46.3227,-23.46654
Rua Alvarenga Peixoto,Ituiutaba,MG,38304-266,BR,-49.45174,-18.99221
Rua Álvaro Brandão,São Gonçalo,RJ,24455-720,BR,-43.02637,-22.80273
Rua Álvaro Cézar,Rio Branco,AC,69911-518,BR,-67.83198,-9.98474
Rua Álvaro João Luiz Miguel,Cuiabá,MT,78050-879,BR,-56.06262,-15.58972
Rua Alvinópolis,Teresina,PI,64027-666,BR,-42.73475,-5.0588
Rua Alzira Nogueira,Resende,RJ,27524-060,BR,-44.48785,-22.47794
Rua Amadeu de Souza,Sorocaba,SP,18079-133,BR,-47.48094,-23.43206
Rua Amadeu Tavares,Garanhuns,PE,55294-060,BR,-36.51361,-8.89509
Rua Amado Alves Teixeira,Betim,MG,32657-174,BR,-44.17471,-20.00271
Rua Amador Bueno,Pirassununga,SP,13631-080,BR,-47.42437,-22.00257
Rua Amália Reiter,Blumenau,SC,89072-210,BR,-49.1403,-26.88861
Rua Amarante Nunes,Criciúma,SC,88819-203,BR,-49.37165,-28.678
Rua Amaro Faria da Fonseca,Itaguaí,RJ,23850-310,BR,-43.7738,-22.85632
Rua Amazonas,Franca,SP,14401-408,BR,-47.37552,-20.52718
Rua Amazonas,Itaquaquecetuba,SP,08572-680,BR,-46.34421,-23.50169
Rua Ambleto Bertolucci,Bauru,SP,17052-021,BR,-49.08607,-22.33204
Rua Amélia de Jesus Madeira,Ourinhos,SP,19902-444,BR,-49.86029,-22.99672
Rua Amélia Valentina Fernandes Dias,Joinville,SC,89209-460,BR,-48.84625,-26.30475
Rua América do Sul,Aracruz,ES,29192-703,BR,-40.25889,-19.82525
Rua América,Sarandi,PR,87111-440,BR,-51.86891,-23.45509
Rua Américo de Jesus,Nova Iguaçu,RJ,26271-132,BR,-43.50987,-22.76955
Rua Ametista,Maringá,PR,87083-531,BR,-51.95379,-23.40526
Rua Ametista,São Lourenço da Mata,PE,54735-075,BR,-35.04089,-7.98401
Rua Amor Perfeito,Hortolândia,SP,13187-051,BR,-47.20618,-22.90842
Rua Amor-perfeito,São José dos Pinhais,PR,83060-640,BR,-49.14257,-25.48815
Rua Amparo Domingos de Andrade,Várzea Paulista,SP,13224-105,BR,-46.80549,-23.21417
Rua Amsterdan,Indaiatuba,SP,13337-051,BR,-47.18444,-23.06483
Rua Ana Costa,Feira de Santana,BA,44092-052,BR,-38.94645,-12.30305
Rua Ana de Sá Pires,Fortaleza,CE,60191-705,BR,-38.46806,-3.75716
Rua Ana Ferreira Antunes,Montes Claros,MG,39401-259,BR,-43.87789,-16.69119
Rua Ana Luíza,Nova Iguaçu,RJ,26291-467,BR,-43.54912,-22.78333
Rua Ana Moreira,Campina Grande,PB,58407-293,BR,-35.86735,-7.22403
Rua Ana Reimberg Hemmel,São Paulo,SP,04844-390,BR,-46.70207,-23.75395
Rua Anambezinho,Arapongas,PR,86706-380,BR,-51.43101,-23.4556
Rua Ananias Ferreira de Andrade,Porto Velho,RO,76824-356,BR,-63.86082,-8.74921
Rua Ananias Tomaz dos Santos,Governador Valadares,MG,35024-750,BR,-41.99713,-18.83471
Rua Anatole France,São Paulo,SP,04283-050,BR,-46.60492,-23.60763
Rua Andorinha Colar Negro,Arapongas,PR,86703-540,BR,-51.41403,-23.39591
Rua Andrade Araújo,Rio de Janeiro,RJ,21341-311,BR,-43.35167,-22.87926
Rua André de Souza Campos,Campinas,SP,13050-730,BR,-47.10651,-22.94629
Rua André Fillipe Ribeiro da Silva,Rio das Ostras,RJ,28895-110,BR,-41.94202,-22.52753
Rua André Martins,São Paulo,SP,02759-040,BR,-46.67945,-23.48307
Rua André Somagio,Mococa,SP,13732-459,BR,-47.01729,-21.4594
Rua Andrelândia,Natal,RN,59084-150,BR,-35.20036,-5.86798
Rua Anel Sul,Rio Branco,AC,69903-291,BR,-67.81877,-9.94277
Rua Ângela Carobine,Cariacica,ES,29145-040,BR,-40.3927,-20.35491
Rua Angelina da Rosa Dias,Três Lagoas,MS,79622-024,BR,-51.71742,-20.78764
Rua Angelina Vicentim Beraldo,Paulínia,SP,13148-066,BR,-47.13638,-22.75969
Rua Ângelo Alves Fernandes,Feira de Santana,BA,44096-012,BR,-38.92282,-12.25738
Rua Ângelo Caos,Vila Velha,ES,29117-445,BR,-40.34984,-20.34078
Rua Ângelo de Castro Rocha,Santa Filomena,PI,64945-970,BR,-45.92094,-9.12449
Rua Ângelo Faustino,Juazeiro,BA,48906-090,BR,-40.4772,-9.43138
Rua Angelo Merlo,Pato Branco,PR,85504-738,BR,-52.66553,-26.21254
Rua Ângelo Rizzoli,Colatina,ES,29705-217,BR,-40.66662,-19.49296
Rua Angico,Santo André,SP,09175-700,BR,-46.51735,-23.68571
Rua Anísio Teixeira,Americana,SP,13474-461,BR,-47.29626,-22.70607
Rua Anita Garibaldi,Recife,PE,51190-330,BR,-34.92079,-8.11801
Rua Anita Garibaldi,Tubarão,SC,88701-270,BR,-49.00787,-28.48536
Rua Anna da Silva Camargo,Leme,SP,13617-743,BR,-47.38805,-22.18535
Rua Anna Maria do Nascimento,São José,SC,88107-501,BR,-50.91511,-27.02357
Rua Anselmo José Tybuchewsky,Ponta Grossa,PR,84060-142,BR,-50.20422,-25.11518
Rua Antalya,Manaus,AM,69097-338,BR,-60.06554,-3.08278
Rua Antenor Malverdi,São Mateus,ES,29934-190,BR,-39.84382,-18.72066
Rua Antilhas,Bragança Paulista,SP,12913-022,BR,-46.52549,-22.96154
Rua Antionha,São Paulo,SP,02140-030,BR,-46.57174,-23.48828
Rua Antonia Ianni Leis,Itu,SP,13313-190,BR,-47.31688,-23.24855
Rua Antônia Veiga Ruiz,Mogi das Cruzes,SP,08773-060,BR,-46.19903,-23.51709
Rua Antonieta Almada Miranda,Franca,SP,14404-004,BR,-47.38772,-20.57519
Rua Antonina do Norte,Guarulhos,SP,07252-160,BR,-46.40499,-23.449
Rua Antonina Szathowski,Ponta Grossa,PR,84064-250,BR,-50.23579,-25.04819
Rua Antonina,São Paulo,SP,01255-010,BR,-46.68202,-23.54751
Rua Antônio Alves,Caratinga,MG,35300-243,BR,-42.13483,-19.78338
Rua Antônio Alzelino Guerra,São Paulo,SP,05883-260,BR,-46.77825,-23.67416
Rua Antônio Anselmo,Rio Branco,AC,69912-326,BR,-67.84931,-9.99176
Rua Antônio Augusto,Belo Horizonte,MG,31575-576,BR,-43.99572,-19.80954
Rua Antônio Barreiros,Volta Redonda,RJ,27215-350,BR,-44.09588,-22.50724
Rua Antônio Caetano de Novais,Ituiutaba,MG,38307-277,BR,-49.49234,-18.98256
Rua Antônio Cardoso Nogueira,São Paulo,SP,05184-000,BR,-46.75619,-23.45675
Rua Antônio Cardoso Pereira,São Paulo,SP,05546-140,BR,-46.77037,-23.58678
Rua Antônio Carlos Mariotti,São José do Rio Preto,SP,15040-285,BR,-49.41172,-20.79897
Rua Antônio Catuca,Caratinga,MG,35300-014,BR,-42.14362,-19.77873
Rua Antônio Cerizza,Araçatuba,SP,16022-440,BR,-50.45912,-21.23993
Rua Antonio da Silva Bartuira,Campo Grande,MS,79091-834,BR,-54.57436,-20.566
Rua Antônio de Castilho,Maricá,RJ,24943-600,BR,-42.82351,-22.90951
Rua Antônio de Paula,Mogi Guaçu,SP,13847-017,BR,-46.9452,-22.35834
Rua Antônio dos Reis,Suzano,SP,08673-100,BR,-46.31582,-23.53939
Rua Antônio Elias Calixto,Passos,MG,37901-352,BR,-46.59861,-20.74399
Rua Antonio Evangelista de Sousa,Teresina,PI,64079-123,BR,-42.81164,-5.09067
Rua Antonio Fernandes de Lima,Umuarama,PR,87507-136,BR,-53.33768,-23.78692
Rua Antonio Flexa da Costa,Macapá,AP,68908-815,BR,-51.09057,0.07063
Rua Antônio Francisco Coutinho,São José do Rio Preto,SP,15046-080,BR,-49.38842,-20.77448
Rua Antonio Francisco Leme,Caieiras,SP,07713-305,BR,-46.74535,-23.34948
Rua Antônio Garcia,Bauru,SP,17012-050,BR,-49.06589,-22.33304
Rua Antônio Grande,Queimados,RJ,26311-190,BR,-43.57664,-22.7256
Rua Antônio Guilhermino do Nascimento,Gravatá,PE,55645-716,BR,-35.59291,-8.19285
Rua Antônio Herrero,Franca,SP,14409-091,BR,-47.37981,-20.54995
Rua Antônio Honorato da Silva,Seropédica,RJ,23890-007,BR,-43.63544,-22.80375
Rua Antônio João de Souza,Biguaçu,SC,88161-542,BR,-48.64923,-27.51984
Rua Antônio José Leite,Patos,PB,58700-153,BR,-37.29691,-7.01407
Rua Antônio José Pereira,Sete Lagoas,MG,35701-466,BR,-44.21059,-19.44714
Rua Antônio Kerpe de Oliveira,Limeira,SP,13484-150,BR,-47.41572,-22.54152
Rua Antônio Lapa,Campinas,SP,13025-240,BR,-47.0486,-22.89871
Rua Antônio Lisboa,Natal,RN,59114-251,BR,-35.26202,-5.83925
Rua Antonio Luiz Viegas,Dourados,MS,79831-222,BR,-54.74476,-22.24027
Rua Antônio Machado da Costa,Três Rios,RJ,25821-460,BR,-43.15575,-22.12822
Rua Antônio Marçal dos Ramos,Santa Luzia,MG,33040-160,BR,-43.87331,-19.78233
Rua Antônio Marcos de Oliveira,Joinville,SC,89231-412,BR,-48.79747,-26.34872
Rua Antônio Marcos,Macapá,AP,68909-159,BR,-51.06965,0.09757
Rua Antônio Marques Rodrigues,Campo Grande,MS,79033-291,BR,-54.56732,-20.42729
Rua Antônio Masi,São Paulo,SP,04671-330,BR,-46.68987,-23.66178
Rua Antônio Matiello,Sorocaba,SP,18074-635,BR,-47.48559,-23.45226
Rua Antônio Monteiro de Carvalho,Maceió,AL,57060-020,BR,-35.76774,-9.59363
Rua Antônio Pedro Cipriano,Criciúma,SC,88810-602,BR,-49.35673,-28.70983
Rua Antônio Pedrozelli,Diadema,SP,09910-030,BR,-46.6325,-23.69299
Rua Antonio Pelarini,Jales,SP,15706-002,BR,-50.56024,-20.27681
Rua Antonio Perez Canovas,Indaiatuba,SP,13331-637,BR,-47.22295,-23.08765
Rua Antonio Puga Archilla,Atibaia,SP,12944-310,BR,-46.5869,-23.13141
Rua Antonio Raimundo,Botucatu,SP,18618-018,BR,-48.4021,-22.78058
Rua Antônio Rodrigues dos Reis,Praia Grande,SP,11722-100,BR,-46.44898,-24.00273
Rua Antônio Rodrigues Medeiros de Freitas,Belo Jardim,PE,55150-530,BR,-36.41311,-8.33667
Rua Antônio Rodrigues Valente,Barra Mansa,RJ,27335-400,BR,-44.11268,-22.54291
Rua Antônio Rosa,Seropédica,RJ,23895-740,BR,-43.73117,-22.71964
Rua Antônio Salim Hissa Filho,São Paulo,SP,04856-020,BR,-46.69468,-23.76411
Rua Antônio Satu,Caruaru,PE,55002-250,BR,-35.96426,-8.28177
Rua Antônio Schuartz,Piraquara,PR,83301-565,BR,-49.08593,-25.46221
Rua Antônio Spoladore,Dourados,MS,79823-732,BR,-54.83741,-22.21738
Rua Antonio Vanini,Bauru,SP,17055-802,BR,-49.05314,-22.2924
Rua Antônio Willemann,São José,SC,88106-143,BR,-48.6239,-27.58219
Rua Aparecida Helena Ribeiro da Silva,Angra dos Reis,RJ,23932-170,BR,-44.31311,-23.00713
Rua Aparecido Rodrigues,Curitiba,PR,81850-680,BR,-49.24209,-25.54285
Rua Ápio Patrocínio,Salvador,BA,40386-050,BR,-38.47581,-12.92754
Rua Apucarana,Itapecerica da Serra,SP,06866-200,BR,-46.79441,-23.75627
Rua Apucarana,Uberaba,MG,38037-510,BR,-47.9102,-19.78181
Rua Apurimac,Manaus,AM,69068-480,BR,-59.99727,-3.12328
Rua Aquariús,Fortaleza,CE,60330-410,BR,-38.58919,-3.71242
Rua Aquino da Natividade Costa,Joinville,SC,89233-072,BR,-48.84372,-26.36082
Rua Araçatuba,Cuiabá,MT,78058-671,BR,-56.11835,-15.60019
Rua Araci,São Paulo,SP,04181-120,BR,-46.55647,-23.53907
Rua Araguacema,Guarulhos,SP,07083-110,BR,-46.54847,-23.43958
Rua Araponga,Timóteo,MG,35181-735,BR,-42.58241,-19.58206
Rua Arara Celeste,Arapongas,PR,86702-471,BR,-51.44923,-23.39636
Rua Ararandéua,São Paulo,SP,03583-100,BR,-46.49466,-23.55803
Rua Araranguá,Diadema,SP,09932-150,BR,-46.61416,-23.66456
Rua Araripe Júnior,Camaragibe,PE,54753-055,BR,-34.99239,-8.01249
Rua Araruna,Campo Mourão,PR,87302-296,BR,-52.37532,-24.05006
Rua Ararupe,Rio de Janeiro,RJ,23055-310,BR,-43.57447,-22.91351
Rua Araucária,Blumenau,SC,89040-020,BR,-49.1116,-26.91911
Rua Arcelindo Benetti,Mauá,SP,09361-174,BR,-46.45561,-23.69927
Rua Ardósia,Belo Horizonte,MG,31210-480,BR,-43.9556,-19.90872
Rua Area Verde Quatro,São Lourenço da Mata,PE,54745-060,BR,-35.03805,-8.01467
Rua Argentina,Americana,SP,13465-690,BR,-47.33736,-22.74362
Rua Argeu Monjardim,Vitória,ES,29043-236,BR,-40.3211,-20.30218
Rua Áries,Cotia,SP,06709-660,BR,-46.84041,-23.57816
Rua Arivaldo Favalessa,Vitória,ES,29027-017,BR,-39.88555,-18.72358
Rua Arizona,Jales,SP,15700-284,BR,-50.5296,-20.26746
Rua Arlindo Quintino Freitas,Assis,SP,19814-140,BR,-50.4046,-22.661
Rua Armando Paim,São Paulo,SP,02216-060,BR,-46.58021,-23.49489
Rua Armando Sales de Oliveira,Santo André,SP,09130-210,BR,-46.5046,-23.69235
Rua Armando Silveira,Avaré,SP,18704-574,BR,-48.9362,-23.12806
Rua Arnaldo Gabardo,Curitiba,PR,81710-330,BR,-49.26319,-25.49829
Rua Arnaldo Pinheiro,Itaboraí,RJ,24868-036,BR,-42.85312,-22.7384
Rua Arnaldo Pinto Pereira,São José dos Campos,SP,12244-310,BR,-45.9371,-23.20022
Rua Arnaud Guedes de Amorim,São João de Meriti,RJ,25550-570,BR,-43.38101,-22.77527
Rua Arnoldo João Frigini,Aracruz,ES,29193-100,BR,-40.27889,-19.83063
Rua Aroeira,Parnamirim,RN,59152-100,BR,-35.19311,-5.88968
Rua Arpuí,São Paulo,SP,02514-050,BR,-46.65384,-23.50748
Rua Arrabalde da Ponte,São Paulo,SP,03574-060,BR,-46.51326,-23.55902
Rua Artacerce Brotto,Vitória,ES,29065-700,BR,-40.29931,-20.27949
Rua Articura,São Paulo,SP,02084-150,BR,-46.59912,-23.49512
Rua Artur Bernardes,Teresina,PI,64022-108,BR,-42.79565,-5.13394
Rua Artur Joviano,Belo Horizonte,MG,30310-270,BR,-43.92584,-19.94628
Rua Aruá,Várzea Paulista,SP,13225-572,BR,-46.84551,-23.22217
Rua Árvore da Chuva,Guarulhos,SP,07178-700,BR,-46.50768,-23.44353
Rua Assis Valente,Praia Grande,SP,11709-100,BR,-46.58369,-24.07661
Rua Assis,Guarulhos,SP,07031-180,BR,-46.40396,-23.44448
Rua Astolfo do Amaral,Ponta Porã,MS,79900-630,BR,-55.72964,-22.49974
Rua Astúrias,São José do Rio Preto,SP,15087-281,BR,-49.40605,-20.84619
Rua Ataíde de Souza Leitão,Dourados,MS,79822-560,BR,-54.84039,-22.24002
Rua Atévio Alves de Souza,Hortolândia,SP,13183-554,BR,-47.2142,-22.8542
Rua Athanízio Senna da Silva,Marília,SP,17512-816,BR,-49.97089,-22.15621
Rua Atílio Battistoti,Brusque,SC,88354-120,BR,-48.91907,-27.10765
Rua Atílio Correia Lima,Rio de Janeiro,RJ,21051-450,BR,-43.26553,-22.87385
Rua Atílio Magon,Sertãozinho,SP,14177-015,BR,-48.009,-21.13695
Rua Atirador Paulo Roberto Vialle,Limeira,SP,13484-312,BR,-47.41121,-22.55977
Rua Attílio Ramon,Curitiba,PR,82840-500,BR,-49.21916,-25.39334
Rua Augusta Parreira Belintani,Campinas,SP,13061-253,BR,-47.10834,-22.91774
Rua Augusta,Guarulhos,SP,07025-130,BR,-46.54553,-23.48162
Rua Augusto Butzke Júnior,Blumenau,SC,89023-390,BR,-49.0865,-26.9571
Rua Augusto da Silva,Pinhais,PR,83328-440,BR,-49.14677,-25.40791
Rua Augusto de Almeida Batista,Embu das Artes,SP,06814-165,BR,-46.81306,-23.66478
Rua Augusto de Almeida Batista,Embu das Artes,SP,06814-555,BR,-46.81487,-23.65705
Rua Augusto dos Anjos,Natal,RN,59114-206,BR,-35.22199,-5.84066
Rua Augusto Fabregas,São Paulo,SP,05820-110,BR,-46.74157,-23.66857
Rua Augusto Gomes do Amaral,Garanhuns,PE,55291-635,BR,-36.48425,-8.90959
Rua Augusto Montenegro,Santarém,PA,68005-370,BR,-54.71913,-2.42094
Rua Augusto Silva,Birigui,SP,16204-009,BR,-50.35124,-21.30065
Rua Augusto Silva,Sorocaba,SP,18080-250,BR,-47.46334,-23.48614
Rua Augusto Wunderwald,São Bento do Sul,SC,89282-610,BR,-49.32764,-26.21371
Rua Aurélio Ocampos,Rondonópolis,MT,78705-504,BR,-54.57849,-16.47479
Rua Aurendina Pinto Lara,Suzano,SP,08630-440,BR,-46.31051,-23.54116
Rua Auriflama,São Paulo,SP,05422-080,BR,-46.68312,-23.56695
Rua Aurora Assunção,Três Rios,RJ,25809-320,BR,-43.2198,-22.09845
Rua Aurora Budel Alberti,Colombo,PR,83411-115,BR,-49.15312,-25.34465
Rua Auta Rosa,São Gonçalo,RJ,24738-590,BR,-42.94164,-22.85971
Rua Avelina Rodrigues Oliveira,Uberlândia,MG,38411-166,BR,-48.27761,-18.94703
Rua Avelino Bertaglia,Birigui,SP,16207-038,BR,-50.37625,-21.30362
Rua Avelino de Paula,Telêmaco Borba,PR,84266-570,BR,-50.6413,-24.33443
Rua Avelino Lopes Conceição,Ponta Grossa,PR,84026-395,BR,-50.12364,-25.1123
Rua Ayres Pereira,Campinas,SP,13107-118,BR,-46.96046,-22.87442
Rua Ayrton Senna da Silva,Indaiatuba,SP,13332-809,BR,-47.23934,-23.05192
Rua Azulão,Timóteo,MG,35181-719,BR,-42.57982,-19.58401
Rua B,Aracaju,SE,49030-836,BR,-37.09498,-10.89976
Rua B,Barra do Piraí,RJ,27113-620,BR,-44.05128,-22.47148
Rua B,Guapimirim,RJ,25946-085,BR,-42.96278,-22.50911
Rua B,Guapimirim,RJ,25948-170,BR,-42.96278,-22.50911
Rua B,Magé,RJ,25937-780,BR,-43.02557,-22.58752
Rua B,Recife,PE,50920-827,BR,-34.90698,-8.10539
Rua B,Salvador,BA,41342-600,BR,-38.40378,-12.89856
Rua B,Telêmaco Borba,PR,84271-555,BR,-50.62976,-24.31853
Rua BA - 037,Brusque,SC,88355-560,BR,-50.32915,-27.82134
Rua Bacuri,Itatiba,SP,13252-638,BR,-46.85222,-23.0148
Rua Bahia,Colatina,ES,29709-366,BR,-40.70584,-19.52776
Rua Bahia,Ponta Porã,MS,79906-540,BR,-55.69428,-22.55736
Rua Bahia,Ponte Nova,MG,35430-134,BR,-42.90531,-20.40498
Rua Bahia,São Bernardo do Campo,SP,09891-570,BR,-46.5734,-23.68214
Rua Baliza,Rio de Janeiro,RJ,23055-015,BR,-43.57662,-22.91213
Rua Bálsamo,Carapicuíba,SP,06381-310,BR,-46.83994,-23.54709
Rua Balugaes,Nova Iguaçu,RJ,26296-225,BR,-43.59541,-22.80638
Rua Bandeirantes,Teresina,PI,64065-040,BR,-42.7764,-5.00668
Rua Barajuba,São Paulo,SP,05463-040,BR,-46.70842,-23.55722
Rua Barão de Melgaço,Corumbá,MS,79310-143,BR,-57.63586,-19.00991
Rua Barão de Oeiras,Recife,PE,52130-151,BR,-34.89013,-8.01041
Rua Barão de Santo Ângelo,Curitiba,PR,81810-140,BR,-49.27937,-25.51101
Rua Barão do Cerro Azul,Cascavel,PR,85802-050,BR,-53.45248,-24.96426
Rua Barão do Tietê,Maringá,PR,87040-060,BR,-51.90088,-23.41557
Rua Baraúna,Petrolina,PE,56332-200,BR,-40.54989,-9.37933
Rua Barbosa Cauhi,Uberaba,MG,38082-159,BR,-47.89569,-19.75735
Rua Barra do Longá,Teresina,PI,64058-770,BR,-42.75081,-5.06053
Rua Barros Barreto,Campos dos Goytacazes,RJ,28140-970,BR,-41.32241,-21.77436
Rua Bartolomeu Vasconcelos,Teresina,PI,64015-030,BR,-42.79768,-5.09459
Rua Basílio Augusto de Souza,Votuporanga,SP,15506-072,BR,-49.99452,-20.43976
Rua Basílio Costalonga,Vila Velha,ES,29115-560,BR,-40.33602,-20.33023
Rua Basílio Viana Júnior,São Paulo,SP,03382-040,BR,-46.53438,-23.58136
Rua Batista das Neves,Várzea Grande,MT,78130-663,BR,-56.1393,-15.65175
Rua Bealina Raposeiro Carvalho,Sumaré,SP,13174-590,BR,-47.24677,-22.82709
Rua Beatriz Calixtrato Nunes,Parnamirim,RN,59145-090,BR,-35.28187,-5.90955
Rua Beira-mar,Santana,AP,68925-025,BR,-51.17786,-0.05719
Rua Bela Vista,Natal,RN,59129-696,BR,-35.26271,-5.74621
Rua Bela Vista,Vila Velha,ES,29117-245,BR,-40.36189,-20.36185
Rua Belchior Gomes de Araújo,Iguatu,CE,63505-405,BR,-39.30732,-6.37927
Rua Beleza do Agreste,Petrolina,PE,56332-100,BR,-40.46422,-9.38903
Rua Belgica,Macapá,AP,68906-177,BR,-51.15099,0.02411
Rua Bélgica,Santa Luzia,MG,33115-010,BR,-43.90835,-19.7987
Rua Beli Milher,Rio das Ostras,RJ,28899-278,BR,-41.90622,-22.47728
Rua Belo Monte,Catanduva,SP,15802-305,BR,-49.00244,-21.14594
Rua Belvedere,Maringá,PR,87045-040,BR,-51.90205,-23.42524
Rua Benedicta Rodrigues Domingos,Ribeirão Preto,SP,14095-050,BR,-47.77106,-21.19165
Rua Benedita dos Santos Loureiro,Guarapari,ES,29201-310,BR,-40.51281,-20.64383
Rua Benedita Gabriela Barbosa Ignez,Franca,SP,14406-156,BR,-47.45533,-20.54454
Rua Beneditinos,Teresina,PI,64017-410,BR,-42.79663,-5.11532
Rua Benedito Américo de Oliveira,Osasco,SP,06028-080,BR,-46.7663,-23.54847
Rua Benedito Barroso,Rio das Ostras,RJ,28894-506,BR,-41.94532,-22.50725
Rua Benedito Cirino Silva Filho,Sorocaba,SP,18065-509,BR,-47.51095,-23.49636
Rua Benedito Faber,São Paulo,SP,05750-070,BR,-46.74936,-23.61733
Rua Benedito França,Curitiba,PR,82810-540,BR,-49.20656,-25.43859
Rua Benedito Garboci,Jacareí,SP,12335-506,BR,-45.95704,-23.2601
Rua Benedito Leite de Siqueira,Suzano,SP,08613-530,BR,-46.27792,-23.54052
Rua Benedito Maciel,Montes Claros,MG,39403-043,BR,-43.85979,-16.75782
Rua Benedito Paula dos Santos,Guaratinguetá,SP,12505-220,BR,-45.20152,-22.81476
Rua Benedito Rigolo,Jundiaí,SP,13218-033,BR,-46.9886,-23.18391
Rua Benevenuto Colombo,Araraquara,SP,14807-258,BR,-48.15584,-21.80913
Rua Beni,Campo Grande,MS,79093-570,BR,-54.61542,-20.45584
Rua Benjamim Soares de Souza,Barra do Piraí,RJ,27120-540,BR,-43.801,-22.45638
Rua Benjamin Chadid,Campo Grande,MS,79106-280,BR,-54.70051,-20.44727
Rua Benjamin Constant,Andradina,SP,16900-447,BR,-51.3762,-20.9078
Rua Bento Amadeu Malavolta,Araraquara,SP,14806-287,BR,-48.15421,-21.74517
Rua Bento Antunes de Moraes,Itapetininga,SP,18213-605,BR,-48.0211,-23.5739
Rua Bento Aranha,Manacapuru,AM,69400-595,BR,-60.61928,-3.28687
Rua Benzedor,Uberlândia,MG,38407-219,BR,-48.18808,-18.913
Rua Bepe Vanni,Tatuí,SP,18271-170,BR,-47.84424,-23.34365
Rua Berlim,Ipatinga,MG,35164-029,BR,-42.558,-19.43488
Rua Bernardino Carvalho Grade,Campinas,SP,13092-450,BR,-47.06442,-22.90509
Rua Bernardino de Carvalho,Recife,PE,50730-310,BR,-34.9446,-8.05579
Rua Bernardo Guimarães,Lages,SC,88511-087,BR,-50.30952,-27.82516
Rua Bezerra de Araújo,Governador Valadares,MG,35044-970,BR,-41.94655,-18.88649
Rua BF29B,Goiânia,GO,74477-132,BR,-49.33681,-16.59344
Rua BF34,Goiânia,GO,74477-158,BR,-49.33896,-16.59097
Rua Bias,São Paulo,SP,02371-020,BR,-46.61776,-23.46065
Rua Biguaçu,Itajaí,SC,88309-470,BR,-48.69802,-26.90505
Rua Biraci Teixeira de Noronha,Curitiba,PR,82600-610,BR,-49.21463,-25.3971
Rua Biririca,Vila Velha,ES,29113-110,BR,-40.3507,-20.37068
Rua Boa Sorte,Angra dos Reis,RJ,23954-240,BR,-44.40179,-22.93778
Rua Boa Vista,Feira de Santana,BA,44002-678,BR,-38.97219,-12.2554
Rua Boaventura,Belo Horizonte,MG,31270-978,BR,-43.95612,-19.85656
Rua Boituva,Piracicaba,SP,13401-816,BR,-47.6732,-22.77968
Rua Boleslau Brigola,Ponta Grossa,PR,84022-240,BR,-50.10886,-25.06612
Rua Bolívia,Caçapava,SP,12286-020,BR,-45.71981,-23.10925
Rua Bolsão dos Tucanos,Pinhais,PR,83320-440,BR,-49.17976,-25.42894
Rua Bom Conselho,Osasco,SP,06124-320,BR,-46.7951,-23.54423
Rua Bom Jesus dos Navegantes,Maceió,AL,57010-688,BR,-35.7602,-9.66784
Rua Bom Jesus,Pirassununga,SP,13630-105,BR,-47.42965,-22.00001
Rua Bom Jesus,Pirassununga,SP,13634-048,BR,-47.43269,-22.00041
Rua Bonina,Recife,PE,52125-080,BR,-34.87803,-8.02177
Rua Bonsucesso,Itaquaquecetuba,SP,08581-300,BR,-46.35229,-23.45949
Rua Borda da Mata,Várzea Paulista,SP,13222-281,BR,-46.8192,-23.1914
Rua Bosque,Nova Iguaçu,RJ,26033-170,BR,-43.46816,-22.72252
Rua Botumirim,Betim,MG,32684-088,BR,-44.10997,-19.9508
Rua Brasil,Assis,SP,19800-101,BR,-50.4201,-22.66927
Rua Brasil,Betim,MG,32670-014,BR,-44.1925,-19.93727
Rua Brasil,Goiânia,GO,74354-300,BR,-49.3808,-16.82178
Rua Brasil,Porto Velho,RO,76811-606,BR,-63.86112,-8.79368
Rua Brasil,Recife,PE,52040-490,BR,-34.94549,-8.11439
Rua Bráulio Nascimento,Salvador,BA,41900-060,BR,-38.47245,-13.01363
Rua Braúnas,Ribeirão das Neves,MG,33939-020,BR,-43.99586,-19.79416
Rua Bráz Alves Batista,Caieiras,SP,07749-155,BR,-46.74008,-23.36452
Rua Brigadeiro Henrique Fontenelle,São Paulo,SP,05125-001,BR,-46.73927,-23.49823
Rua Bruno Bettoni,Piracicaba,SP,13401-823,BR,-47.66757,-22.77844
Rua Brusque,Natal,RN,59112-490,BR,-35.26169,-5.75113
Rua Bulgarin,Parintins,AM,69152-394,BR,-56.75208,-2.63912
Rua Buriti,Aracruz,ES,29199-130,BR,-40.27442,-19.81953
Rua Butiá,Rio de Janeiro,RJ,23080-040,BR,-43.55691,-22.89993
Rua Búzios,São José dos Campos,SP,12238-370,BR,-45.92669,-23.24751
Rua C-002,Gurupi,TO,77420-290,BR,-49.05372,-11.72675
Rua C-15,Maceió,AL,57072-778,BR,-35.77462,-9.53604
Rua C-24,Barretos,SP,14781-468,BR,-48.57505,-20.55065
Rua C,Gurupi,TO,77413-460,BR,-49.0953,-11.71411
Rua C,Itabira,MG,35900-249,BR,-43.23695,-19.6696
Rua C,Santa Luzia,MG,33040-259,BR,-43.83388,-19.76618
Rua C4,Gurupi,TO,77426-048,BR,-49.10017,-11.72298
Rua Caçador,Blumenau,SC,89015-152,BR,-49.04652,-26.92806
Rua Cáceres,Uberlândia,MG,38414-549,BR,-48.33785,-18.94028
Rua Caetano,Porto Velho,RO,76808-122,BR,-63.88257,-8.79729
Rua Caetê,Indaiatuba,SP,13335-370,BR,-47.19524,-23.08077
Rua Caetés,Cariacica,ES,29157-526,BR,-40.38489,-20.36813
Rua Caiaponia,Jataí,GO,75800-095,BR,-51.72403,-17.89216
Rua Caibi,Carapicuíba,SP,06355-010,BR,-46.84733,-23.56465
Rua Caicó,São Paulo,SP,03551-060,BR,-46.5038,-23.53466
Rua Caixa D'água,Marabá,PA,68513-605,BR,-49.07918,-5.30033
Rua Cajuri,Recife,PE,50980-140,BR,-34.92058,-8.10381
Rua Califórnia,São Paulo,SP,04566-060,BR,-46.68088,-23.60819
Rua Calopsita,Brusque,SC,88350-745,BR,-48.94727,-27.12335
Rua Calopsita,Cariacica,ES,29154-845,BR,-40.3847,-20.31498
Rua Cambé,Poá,SP,08563-660,BR,-46.34667,-23.53391
Rua Cambuca,Rio de Janeiro,RJ,21061-110,BR,-43.26237,-22.87116
Rua Cambuquira,Pará de Minas,MG,35661-186,BR,-44.59319,-19.87047
Rua Camélia,Itacoatiara,AM,69104-810,BR,-58.42431,-3.13426
Rua Cameta,Nova Iguaçu,RJ,26061-670,BR,-43.41358,-22.68767
Rua Camila Martins dos Santos,Guarulhos,SP,07094-070,BR,-46.54274,-23.4539
Rua Caminho Beira-Rio,Parnamirim,RN,59156-209,BR,-35.25178,-5.93876
Rua Campestre,São José dos Pinhais,PR,83085-475,BR,-49.10688,-25.61451
Rua Campina Verde,Natal,RN,59084-230,BR,-35.20337,-5.86711
Rua Campinas,Ribeirão Preto,SP,14075-070,BR,-47.79459,-21.1496
Rua Campo do Veterano,São Luís,MA,65092-302,BR,-44.22058,-2.69187
Rua Campo Grande,Sarandi,PR,87112-041,BR,-51.86984,-23.46391
Rua Campo Maior,São Luís,MA,65071-340,BR,-44.26002,-2.55233
Rua Campos de Jordão,Taubaté,SP,12060-060,BR,-45.56165,-23.02052
Rua Campos Sales,Goiânia,GO,74483-150,BR,-49.35308,-16.68555
Rua Campos Sales,Manaus,AM,69040-660,BR,-60.04441,-3.08452
Rua Campos Salles,Lages,SC,88520-405,BR,-50.30204,-27.79748
Rua Cana Verde,Belo Horizonte,MG,31270-490,BR,-43.95102,-19.85792
Rua Canaã,Itabira,MG,35900-478,BR,-43.22315,-19.64901
Rua Canadá,Bragança Paulista,SP,12903-391,BR,-46.55463,-22.94681
Rua Canal,Salvador,BA,41207-595,BR,-38.47731,-12.93812
Rua Canárias,Porto Velho,RO,76812-370,BR,-63.85042,-8.78235
Rua Canarinho,Uberaba,MG,38055-130,BR,-47.97653,-19.75275
Rua Canção de Fogo,Rio Branco,AC,69906-462,BR,-67.82074,-10.00693
Rua Cancioneiro Popular,São Paulo,SP,04710-000,BR,-46.69471,-23.63001
Rua Cândido Ferreira de Souza,Rio de Janeiro,RJ,22713-164,BR,-43.39009,-22.92988
Rua Cândido Juca,Manaus,AM,69030-300,BR,-60.05083,-3.09942
Rua Candido Pereira de Castro,São Paulo,SP,08142-377,BR,-46.7089,-23.76775
Rua Cândido Sales,Mogi das Cruzes,SP,08774-150,BR,-46.28101,-23.46634
Rua Canela,Ponta Grossa,PR,84020-680,BR,-50.1249,-25.08131
Rua Canhotinho,Garanhuns,PE,55295-555,BR,-36.48647,-8.87515
Rua Cantídio Victor,Caçapava,SP,12289-400,BR,-45.71383,-23.06834
Rua Cantílio Orsi,Lençóis Paulista,SP,18685-460,BR,-48.81135,-22.57993
Rua Capão da Serra,São Paulo,SP,04289-090,BR,-46.61546,-23.6088
Rua Capistrano de Abreu,São Gonçalo,RJ,24737-596,BR,-42.94191,-22.84598
Rua Capitão Canuto de Azevedo,Franca,SP,14401-253,BR,-47.38945,-20.52777
Rua Capitão João Velho,Caruaru,PE,55002-400,BR,-35.96779,-8.28104
Rua Capitão José Gallo,Ribeirão Pires,SP,09400-080,BR,-46.41718,-23.71091
Rua Capitão Joseph Pereira Quevedo,Curitiba,PR,80710-120,BR,-49.2967,-25.42267
Rua Capitão Mariano,Mogi das Cruzes,SP,08717-050,BR,-46.19174,-23.52881
Rua Capitão Mello,Maricá,RJ,24937-010,BR,-43.00224,-22.95953
Rua Capitão Melo,Fortaleza,CE,60120-095,BR,-38.513,-3.75713
Rua Capitão Mor Antônio de Oliveira,São Bernardo do Campo,SP,09725-110,BR,-46.55911,-23.71219
Rua Capitolino,Salvador,BA,41227-072,BR,-38.46988,-12.93235
Rua Carambola,Rio Branco,AC,69920-088,BR,-67.81189,-9.9319
Rua Carauri,Rio de Janeiro,RJ,21775-170,BR,-43.44774,-22.89
Rua Carcino,São Paulo,SP,05223-060,BR,-46.74146,-23.41028
Rua Cardeal,Pará de Minas,MG,35663-678,BR,-44.56459,-19.78685
Rua Cardoso de Almeida,São Paulo,SP,01251-000,BR,-46.67496,-23.55049
Rua Carim Jorge,Suzano,SP,08655-760,BR,-46.30524,-23.60292
Rua Carina,São José dos Campos,SP,12230-440,BR,-45.88638,-23.22564
Rua Carlos Alberto Carneiro,Teresina,PI,64012-520,BR,-42.79403,-5.16084
Rua Carlos Alberto Luiz,São Paulo,SP,02207-080,BR,-46.58714,-23.48694
Rua Carlos Alberto Soares de Freitas,São Paulo,SP,05328-105,BR,-46.65993,-23.4843
Rua Carlos Antônio Cândido,Santa Luzia,MG,33010-474,BR,-43.93115,-19.76782
Rua Carlos Barbosa,Toledo,PR,85904-210,BR,-53.76293,-24.71346
Rua Carlos Busse Junior,Bebedouro,SP,14708-274,BR,-48.49387,-20.91275
Rua Carlos Cerri,Araras,SP,13606-832,BR,-47.32892,-22.34991
Rua Carlos Chagas,Araxá,MG,38182-408,BR,-46.92681,-19.61352
Rua Carlos Dietzsch,Curitiba,PR,80330-000,BR,-49.29813,-25.47198
Rua Carlos Ebolu,São Paulo,SP,05183-290,BR,-46.75124,-23.45293
Rua Carlos Fiolo,Campinas,SP,13058-149,BR,-47.19785,-22.9685
Rua Carlos Gonçalves Dutra,Itajaí,SC,88302-370,BR,-48.65616,-26.91983
Rua Carlos Haag,Rio do Sul,SC,89163-482,BR,-49.66419,-27.20359
Rua Carlos Lacerda,Volta Redonda,RJ,27220-110,BR,-44.0561,-22.48124
Rua Carlos Lecor,Manaus,AM,69055-430,BR,-60.01011,-3.08065
Rua Carlos Maul,Duque de Caxias,RJ,25261-270,BR,-43.2626,-22.63836
Rua Carlos Miranda,Maceió,AL,57025-665,BR,-35.72751,-9.65923
Rua Carlos Pagel,Blumenau,SC,89062-260,BR,-49.08789,-26.82332
Rua Carlos Pereira,São Tiago,MG,36350-970,BR,-44.60276,-21.03954
Rua Carlos Raya,Piracicaba,SP,13402-251,BR,-47.66997,-22.74523
Rua Carlos Ritter,Blumenau,SC,89041-550,BR,-49.11976,-26.9117
Rua Carlos Rodrigues,Guarulhos,SP,07084-320,BR,-46.53815,-23.48091
Rua Carlos Tavares,Natal,RN,59076-790,BR,-35.2071,-5.8359
Rua Carlos Tomazine,Sorocaba,SP,18087-178,BR,-47.4035,-23.458
Rua Carlota Silva Rossi,Itumbiara,GO,75522-190,BR,-49.20146,-18.41159
Rua Carmela Dutra,Belford Roxo,RJ,26167-450,BR,-43.37024,-22.73811
Rua Carmen Miranda,São Luís,MA,65050-470,BR,-44.21925,-2.53783
Rua Carnaíba,Recife,PE,52090-121,BR,-34.92699,-8.01849
Rua Carneiro,Santa Rita,PB,58300-750,BR,-34.95768,-7.13385
Rua Caroline Borba de Lima,São Lourenço da Mata,PE,54705-412,BR,-35.01997,-7.9985
Rua Carurú,Campo Grande,MS,79072-265,BR,-54.68176,-20.49492
Rua Casa de Emaús,São Paulo,SP,04455-410,BR,-46.67504,-23.68366
Rua Casemiro de Abreu,Teresópolis,RJ,25959-055,BR,-42.98081,-22.44841
Rua Casimiro de Abreu,Nova Iguaçu,RJ,26064-130,BR,-43.51754,-22.73314
Rua Cassiano Ricardo,Santa Bárbara D'Oeste,SP,13457-003,BR,-47.40077,-22.7683
Rua Cássio Vanderlei Tetilia,Dourados,MS,79823-700,BR,-54.81093,-22.22911
Rua Cassua,Duque de Caxias,RJ,25231-070,BR,-43.29325,-22.67025
Rua Castanheira,Rio Branco,AC,69915-882,BR,-67.82858,-9.93646
Rua Castelo de Alenquer,Belo Horizonte,MG,31330-050,BR,-43.9944,-19.88294
Rua Castelo do Piauí,Teresina,PI,64008-363,BR,-42.82434,-5.04557
Rua Castro Alves,Assis,SP,19814-060,BR,-50.41212,-22.65657
Rua Castro Alves,Belford Roxo,RJ,26176-200,BR,-43.34796,-22.71862
Rua Castro Alves,Bragança Paulista,SP,12914-300,BR,-46.52982,-22.95817
Rua Cataguá,Patos de Minas,MG,38703-790,BR,-46.47908,-18.57022
Rua Catanzaro,Araraquara,SP,14803-843,BR,-48.18547,-21.82973
Rua Catarina Gadens,Campo Largo,PR,83607-330,BR,-49.50639,-25.44816
Rua Catuama,Itapevi,SP,06665-120,BR,-46.94194,-23.5422
Rua Cavalheiro Euclides,Cruzeiro,SP,12720-630,BR,-44.94223,-22.56737
Rua Caxinguelê,Manaus,AM,69093-124,BR,-59.9924,-3.00591
Rua CC-21,Boa Vista,RR,69318-100,BR,-60.77674,2.79593
Rua Ceará,Magé,RJ,25931-322,BR,-43.16579,-22.61406
Rua Ceará,Piraquara,PR,83307-160,BR,-49.07537,-25.48029
Rua Cecília Meireles,São Bernardo do Campo,SP,09896-240,BR,-46.56766,-23.70448
Rua Cecília,São Paulo,SP,03651-040,BR,-46.52199,-23.53032
Rua Celeste Fernandes Dalphorno,Guarulhos,SP,07075-125,BR,-46.56337,-23.43768
Rua Celina,Bragança Paulista,SP,12912-040,BR,-46.53518,-22.88129
Rua Célio Manuel Vieira,São Paulo,SP,05593-020,BR,-46.74051,-23.57905
Rua Celso Elias Barause,Campo Largo,PR,83602-036,BR,-49.52738,-25.48564
Rua Celso Lacerda Azevedo,Campo Grande,MS,79070-224,BR,-54.61538,-20.52153
Rua Celso Pereira dos Santos,São José do Rio Preto,SP,15052-872,BR,-49.4438,-20.78971
Rua Celso Pupo,Itatiba,SP,13251-280,BR,-46.83876,-23.00683
Rua Celso Soares Couto,Campinas,SP,13058-050,BR,-47.1933,-22.96174
Rua Celso Soncini,Carapicuíba,SP,06361-170,BR,-46.84235,-23.56043
Rua Centenário do Sul,Londrina,PR,86031-200,BR,-51.12324,-23.28284
Rua Cento e Cinqüenta,Suzano,SP,08690-780,BR,-46.31542,-23.50396
Rua Cento e Seis,Volta Redonda,RJ,27255-150,BR,-44.09734,-22.51863
Rua Cento e Sessenta e Quatro-B,Volta Redonda,RJ,27255-170,BR,-44.09963,-22.51549
Rua Central,João Pessoa,PB,58081-084,BR,-34.8988,-7.18381
Rua Ceres,Goiânia,GO,74485-700,BR,-49.38707,-16.64975
Rua Cerro Corá,São Paulo,SP,05061-906,BR,-46.71326,-23.53527
Rua Cézar Constante Schiavon,Curitiba,PR,81925-568,BR,-49.26761,-25.55161
Rua Charafeddine,Rondonópolis,MT,78705-450,BR,-54.64623,-16.44309
Rua Chile,Barreiras,BA,47800-412,BR,-45.007,-12.16532
Rua Chuí,Maricá,RJ,24943-650,BR,-42.93164,-22.9074
Rua Cícero da Mota Oliveira,Garanhuns,PE,55294-577,BR,-36.49757,-8.88466
Rua Cícero Manoel de Medeiros,Parnamirim,RN,59144-640,BR,-35.28397,-5.94565
Rua Cícero Pinheiro,Crato,CE,63105-160,BR,-39.42266,-7.23921
Rua Cid Rebelo Horta,Belo Horizonte,MG,30530-245,BR,-43.99416,-19.93176
Rua Cidade de Iguatu,Joinville,SC,89233-390,BR,-48.8411,-26.37275
Rua Cidade Santa,Manaus,AM,69039-550,BR,-59.92227,-3.02061
Rua Cinco,Americana,SP,13475-175,BR,-47.2805,-22.72461
Rua Cinco,Cuiabá,MT,78080-570,BR,-56.01762,-15.55576
Rua Cinco,Divinópolis,MG,35500-379,BR,-44.98421,-20.18535
Rua Cinco,Franco da Rocha,SP,07832-290,BR,-46.64939,-23.29551
Rua Cinco,Ipatinga,MG,35162-442,BR,-42.58227,-19.46417
Rua Cinco,Magé,RJ,25931-626,BR,-43.17219,-22.71361
Rua Cinco,São Luís,MA,65082-467,BR,-44.21497,-2.56524
Rua Cinco,Volta Redonda,RJ,27259-080,BR,-44.06838,-22.53982
Rua Cinco,Volta Redonda,RJ,27273-340,BR,-44.11297,-22.52011
Rua Cinézio,Belford Roxo,RJ,26150-039,BR,-43.38195,-22.7418
Rua Cinquenta e Sete,Teresina,PI,64041-500,BR,-42.7628,-5.11348
Rua Cinquenta Nove,Timóteo,MG,35180-197,BR,-42.63921,-19.5419
Rua Cinqüenta,Cuiabá,MT,78093-392,BR,-55.9989,-15.61594
Rua Cinqüentenário da Acia,Apucarana,PR,86802-366,BR,-51.46343,-23.56995
Rua Cirilo Zanghelini,Jaraguá do Sul,SC,89265-742,BR,-49.16835,-26.45529
Rua Cisne Azul,São Paulo,SP,04851-430,BR,-46.66102,-23.74957
Rua Cizino Barros e Silva,Gravatá,PE,55645-148,BR,-35.56671,-8.20079
Rua Clara Nunes,Curitiba,PR,82640-060,BR,-49.22938,-25.37727
Rua Claudecir Rodrigues de Azevedo,Capão Bonito,SP,18306-530,BR,-48.34969,-24.0384
Rua Cláudia R. França Alves,Itaúna,MG,35680-548,BR,-44.57674,-20.07269
Rua Cláudio Martins,Belo Horizonte,MG,31230-280,BR,-43.96214,-19.90172
Rua Clemência Nunes Pinheiro,Betim,MG,32641-782,BR,-44.23315,-20.0295
Rua Clemente Bonifácio,São Paulo,SP,03192-010,BR,-46.58125,-23.57095
Rua Clotilde Rodrigues Costa,Barbacena,MG,36200-600,BR,-43.77573,-21.23889
Rua Clóvis de Souza Medina,Campos dos Goytacazes,RJ,28040-710,BR,-41.34596,-21.75794
Rua Colibris,Teixeira de Freitas,BA,45990-534,BR,-39.73456,-17.54984
Rua Colomba Lorencetti Lunardi,Campinas,SP,13064-730,BR,-47.15431,-22.89841
Rua Colômbia,Francisco Morato,SP,07942-250,BR,-46.73883,-23.27226
Rua Colômbia,Maringá,PR,87035-366,BR,-51.9074,-23.39695
Rua Colônia,Goiânia,GO,74330-400,BR,-49.21308,-16.66062
Rua Colorado,Campo Grande,MS,79112-480,BR,-54.66101,-20.43533
Rua Colorado,São José dos Pinhais,PR,83040-250,BR,-49.19806,-25.51989
Rua Comandante Arnaldo da Costa Varela,Recife,PE,50090-440,BR,-34.89517,-8.07847
Rua Comandante Átila Rodrigues Falcão,Três Lagoas,MS,79630-732,BR,-51.68077,-20.79485
Rua Comandante Rúbens Silva,Rio de Janeiro,RJ,22750-053,BR,-43.33594,-22.94261
Rua Comendador Leão,Rio Verde,GO,75901-515,BR,-50.93447,-17.80407
Rua Comerciante Francisco Soares Camelo,Maceió,AL,57042-770,BR,-35.73495,-9.66648
Rua Conceição da Silva Lima,Betim,MG,32628-118,BR,-44.26955,-19.95023
Rua Conde de Azambuja,Rio de Janeiro,RJ,21050-581,BR,-43.25983,-22.88065
Rua Conde dos Arcos,Aparecida de Goiânia,GO,74988-175,BR,-49.22221,-16.83709
Rua Cônego Antônio Pinto,São Paulo,SP,04468-000,BR,-46.66722,-23.69428
Rua Congonhas,Governador Valadares,MG,35059-140,BR,-41.94499,-18.83925
Rua Conselheiro Joaquim Caetano,Belo Horizonte,MG,30431-320,BR,-43.96918,-19.94914
Rua Constancia Souza Garcia,Petrópolis,RJ,25640-150,BR,-43.18025,-22.52918
Rua Copacabana,Coronel Fabriciano,MG,35170-098,BR,-42.63092,-19.51347
Rua Copacabana,Salvador,BA,40430-130,BR,-38.49711,-12.93432
Rua Corino Martins de Oliveira,Ourinhos,SP,19915-488,BR,-49.85139,-22.96179
Rua Coroa de Frade,Belo Horizonte,MG,30666-230,BR,-44.03766,-20.01238
Rua Coromandel,Contagem,MG,32186-320,BR,-44.02074,-19.83678
Rua Coronel Américo de Oliveira,Contagem,MG,32235-390,BR,-44.03446,-19.97806
Rua Coronel José Braúlio Junqueira de Andrade,Lins,SP,16401-140,BR,-49.74316,-21.6619
Rua Coronel José Pessoa,Sairé,PE,55695-970,BR,-35.70731,-8.33051
Rua Coronel José Tomaz,Luz,MG,35595-971,BR,-45.68061,-19.79861
Rua Coronel Lisboa,São Paulo,SP,04020-041,BR,-46.63989,-23.59766
Rua Coronel Maneca Santos,Vitória da Conquista,BA,45007-220,BR,-40.78832,-14.81211
Rua Coronel Nilton José dos Santos,Rio de Janeiro,RJ,21640-120,BR,-43.3935,-22.83313
Rua Coronel Seara,Recife,PE,50900-050,BR,-34.93767,-8.09032
Rua Coronel Spínola de Castro,São José do Rio Preto,SP,15015-500,BR,-49.39864,-20.82344
Rua Coronel Valdivino Costa,Contagem,MG,32186-420,BR,-44.01307,-19.85163
Rua Córrego do Ouro,Rio de Janeiro,RJ,21655-290,BR,-43.3838,-22.81382
Rua Cosme Antunes,Montes Claros,MG,39403-249,BR,-43.8732,-16.74767
Rua Cosme e Damião,Nova Iguaçu,RJ,26012-452,BR,-43.43443,-22.73672
Rua Costa Fernandes,Parnaíba,PI,64202-350,BR,-41.7573,-2.90864
Rua Cotegipe,São Bernardo do Campo,SP,09843-230,BR,-46.54025,-23.68698
Rua Cotegipe,São José dos Campos,SP,12230-551,BR,-45.89167,-23.22662
Rua CP53,Goiânia,GO,74477-239,BR,-49.37291,-16.5858
Rua Cravos,Belém,PA,66821-332,BR,-48.46067,-1.32026
Rua Crespo de Carvalho,São Paulo,SP,02832-210,BR,-46.69335,-23.4829
Rua Crestuma,São Paulo,SP,04030-060,BR,-46.7803,-23.67946
Rua Criciúma,Embu das Artes,SP,06807-040,BR,-46.82385,-23.63133
Rua Crisoberilo,Itapetininga,SP,18204-010,BR,-48.01732,-23.60333
Rua Cristal,Aparecida de Goiânia,GO,74959-228,BR,-49.30216,-16.81676
Rua Cristiano Machado,Rio de Janeiro,RJ,21240-470,BR,-43.32063,-22.81357
Rua Cristo Redentor,São Paulo,SP,04236-260,BR,-46.7196,-23.49034
Rua Cristóvão Colombo,Goiânia,GO,74553-490,BR,-49.3587,-16.68236
Rua Cristóvão Santiago,São Paulo,SP,02871-040,BR,-46.67374,-23.46189
Rua Crocoió,Campo Grande,MS,79012-050,BR,-54.60903,-20.42337
Rua Cruz de Malta,São Paulo,SP,02248-001,BR,-46.59911,-23.49171
Rua Cruz e Souza,Xinguara,PA,68555-063,BR,-49.94153,-7.10178
Rua Cruza Bico,Arapongas,PR,86706-206,BR,-51.42602,-23.43292
Rua Cruzeiro do Oeste,Manaus,AM,69087-705,BR,-59.93533,-3.05629
Rua Cruzeiro do Sul,Recife,PE,52091-091,BR,-34.93474,-8.00751
Rua Cruzeiro do Sul,Rio Branco,AC,69915-288,BR,-67.79546,-9.93537
Rua Cubatão Raabe,Joinville,SC,89239-301,BR,-48.80147,-26.21645
Rua Cubatão,Piracicaba,SP,13432-560,BR,-47.78915,-22.66058
Rua Curemas,Campina Grande,PB,58410-308,BR,-35.87868,-7.23206
Rua Curitiba,Fazenda Rio Grande,PR,83830-616,BR,-49.33171,-25.68856
Rua Curuá,Santarém,PA,68025-540,BR,-54.69837,-2.45741
Rua D,Anápolis,GO,75096-686,BR,-48.93044,-16.32311
Rua D,Aracaju,SE,49070-856,BR,-37.07976,-10.89954
Rua D,Caraguatatuba,SP,11675-642,BR,-45.34161,-23.59243
Rua D,Governador Valadares,MG,35039-710,BR,-41.9852,-18.88481
Rua D,Juiz de Fora,MG,36062-323,BR,-43.34053,-21.75399
Rua D,Rondonópolis,MT,78745-838,BR,-54.64927,-16.43469
Rua D,Salvador,BA,40330-430,BR,-38.4148,-12.88313
Rua D,Seropédica,RJ,23898-515,BR,-43.63577,-22.81813
Rua D,Volta Redonda,RJ,27250-045,BR,-44.1079,-22.49137
Rua da Abolição,Londrina,PR,86025-610,BR,-51.17253,-23.29701
Rua da Agricultura,Santa Bárbara D'Oeste,SP,13454-005,BR,-47.39496,-22.75548
Rua da Alegria,São Luís,MA,65082-547,BR,-44.27015,-2.55866
Rua da Borracha,Santa Bárbara D'Oeste,SP,13454-206,BR,-47.36858,-22.73894
Rua da Câmara,Franca,SP,14401-306,BR,-47.34695,-20.5451
Rua da Caridade,Parnamirim,RN,59146-840,BR,-35.26668,-5.89435
Rua da Carmosina,Salvador,BA,40315-110,BR,-38.48619,-12.96813
Rua da Concórdia,Lins,SP,16400-513,BR,-49.7622,-21.67223
Rua da Consolação,São Paulo,SP,01416-902,BR,-46.64275,-23.54788
Rua da Emília,Recife,PE,51300-030,BR,-34.94706,-8.13188
Rua da Encarnação,Cuiabá,MT,78030-120,BR,-56.12258,-15.60139
Rua da Exportação,João Pessoa,PB,58083-140,BR,-34.91612,-7.17647
Rua da Fazenda,Teresópolis,RJ,25959-225,BR,-42.98098,-22.45723
Rua da Glória,Salvador,BA,41290-855,BR,-38.47012,-12.86309
Rua da Graça,Petrolina,PE,56323-730,BR,-40.61694,-9.32804
Rua da Horta,Lages,SC,88516-240,BR,-50.3753,-27.80566
Rua da Horta,Salvador,BA,41211-600,BR,-38.44131,-12.95022
Rua da Igreja,Saubara,BA,44220-972,BR,-38.77453,-12.77935
Rua da Inglaterra,Betim,MG,32656-660,BR,-44.18683,-19.97634
Rua da Jaboticabeira,Colombo,PR,83407-640,BR,-49.17135,-25.33961
Rua da Lagoa,Teófilo Otoni,MG,39800-590,BR,-41.486,-17.86229
Rua da Libéria,Salvador,BA,41230-015,BR,-38.4657,-12.92374
Rua da Libertação,Campinas,SP,13044-784,BR,-47.03579,-22.94116
Rua da Lima,Várzea Grande,MT,78140-460,BR,-56.14986,-15.6381
Rua da Mina,Guarulhos,SP,07179-333,BR,-46.4195,-23.3625
Rua da Mooca,São Paulo,SP,03165-901,BR,-46.58198,-23.56178
Rua da Novena,Cabo de Santo Agostinho,PE,54589-025,BR,-35.02072,-8.28401
Rua da Passagem,Juiz de Fora,MG,36048-340,BR,-43.35547,-21.69634
Rua da Paz,Rio de Janeiro,RJ,21725-292,BR,-43.45157,-22.85568
Rua da Penha,Jacareí,SP,12307-700,BR,-45.95556,-23.30365
Rua da Peroba,Barreiras,BA,47802-464,BR,-44.96896,-12.15567
Rua da Reverência,Jaboatão dos Guararapes,PE,54325-715,BR,-34.93533,-8.15544
Rua da Secretária,Ponta Grossa,PR,84065-190,BR,-50.26832,-25.04938
Rua da Sereia,Campo Grande,MS,79044-876,BR,-54.56695,-20.38033
Rua da Sucupira,Belo Horizonte,MG,31744-530,BR,-43.99655,-19.94628
Rua da Torre,Atibaia,SP,12954-414,BR,-46.56313,-23.14285
Rua da União,Santa Luzia,MG,33025-567,BR,-43.84012,-19.80824
Rua Dália,Santa Luzia,MG,33170-660,BR,-45.46784,-22.43994
Rua Dalva Moreira da Silva,Angra dos Reis,RJ,23916-120,BR,-44.2177,-23.01015
Rua Damásio Flores da Cunha Filho,Chapecó,SC,89804-443,BR,-52.63904,-27.08156
Rua Daniel Martins Tristão,Franca,SP,14406-814,BR,-47.45699,-20.53756
Rua Daniel Schmidt,Ponta Grossa,PR,84064-268,BR,-50.16311,-25.09492
Rua Daniela Peres,Rio de Janeiro,RJ,23071-636,BR,-43.48175,-22.86196
Rua Daniele Calixto Escorpioni,Birigui,SP,16202-355,BR,-50.30399,-21.28777
Rua Dante Alighieri,Sabará,MG,34555-070,BR,-43.828,-19.88774
Rua Darcílio Ambrósio,Marília,SP,17527-617,BR,-49.97688,-22.2136
Rua das Araucárias,São José do Rio Preto,SP,15093-683,BR,-49.42798,-20.8864
Rua das Azaléas,Taubaté,SP,12090-240,BR,-45.55416,-23.03856
Rua das Bergamoteiras,Sinop,MT,78556-620,BR,-55.51326,-11.88598
Rua das Bracatingas,Sinop,MT,78552-451,BR,-55.50126,-11.82561
Rua das Buganvilias,Itajaí,SC,88308-195,BR,-48.69478,-26.91904
Rua das Cajazeiras,São Luís,MA,65042-063,BR,-44.2964,-2.50676
Rua das Canárias,Belo Horizonte,MG,31560-050,BR,-43.9716,-19.84238
Rua das Canelas,Cuiabá,MT,78061-316,BR,-56.06212,-15.59679
Rua das Caraúnas,Florianópolis,SC,88053-411,BR,-48.49954,-27.44709
Rua das Carmélias,Santarém,PA,68035-730,BR,-54.74552,-2.45475
Rua das Carmélias,Santarém,PA,68047-085,BR,-54.75232,-2.4566
Rua das Cidreiras,Serra,ES,29172-160,BR,-40.20206,-20.17323
Rua das Coníferas,Petrópolis,RJ,25745-113,BR,-43.18204,-22.50384
Rua das Figueiras,Vitória da Conquista,BA,45078-538,BR,-40.8452,-14.9001
Rua das Flores,Barreiras,BA,47806-481,BR,-45.017,-12.13432
Rua das Flores,Jaboatão dos Guararapes,PE,54440-525,BR,-34.95491,-8.21834
Rua das Flores,Juazeiro,BA,48906-015,BR,-40.47918,-9.43611
Rua das Flores,Maricá,RJ,24920-590,BR,-42.8236,-22.9285
Rua das Flores,São Luís,MA,65080-170,BR,-44.20287,-2.60718
Rua das Flores,Seropédica,RJ,23898-120,BR,-43.63985,-22.81647
Rua das Hortências,Vitória da Conquista,BA,45078-510,BR,-40.83686,-14.89181
Rua das Laranjeiras,Criciúma,SC,88811-430,BR,-49.34015,-28.66034
Rua das Magnólias,Cambé,PR,86188-440,BR,-51.26231,-23.2954
Rua das Mangueiras,São Caetano do Sul,SP,09530-740,BR,-46.57143,-23.62916
Rua das Margaridas,Goiânia,GO,74395-740,BR,-49.32459,-16.69978
Rua das Margaridas,Goiânia,GO,74663-515,BR,-49.32472,-16.69915
Rua das Matas,Aparecida de Goiânia,GO,74946-630,BR,-49.26665,-16.75539
Rua das Mélias,Sinop,MT,78550-354,BR,-55.49853,-11.85161
Rua das Oliveiras,Anápolis,GO,75133-858,BR,-48.89755,-16.39443
Rua das Oliveiras,Várzea Grande,MT,78115-385,BR,-56.10144,-15.63186
Rua das Orquídeas,Biguaçu,SC,88161-860,BR,-48.64148,-27.5169
Rua das Orquídeas,Natal,RN,59078-170,BR,-35.20687,-5.84439
Rua das Paineiras,Petrópolis,RJ,25745-530,BR,-43.11183,-22.37077
Rua das Papoulas,Maringá,PR,87060-610,BR,-51.96642,-23.45352
Rua das Papoulas,Sete Lagoas,MG,35701-385,BR,-44.21547,-19.44743
Rua das Perdizes,Teixeira de Freitas,BA,45985-348,BR,-39.75261,-17.53013
Rua das Pitombeiras,São Luís,MA,65081-480,BR,-44.30152,-2.57392
Rua das Poesias,Cotia,SP,06702-335,BR,-46.92369,-23.58091
Rua das Primaveras do Mombaça,São Roque,SP,18132-804,BR,-46.50156,-23.4652
Rua das Pupunhas,Macapá,AP,68908-897,BR,-51.07628,0.08014
Rua das Rosas,Nova Iguaçu,RJ,26025-390,BR,-43.44409,-22.72691
Rua das Sálvias,Guarapuava,PR,85023-390,BR,-51.48343,-25.42266
Rua das Tulipas,Catanduva,SP,15804-380,BR,-48.95385,-21.11178
Rua das Violetas,Capão Bonito,SP,18304-763,BR,-48.33957,-24.00427
Rua das Violetas,Jales,SP,15706-050,BR,-50.55997,-20.27418
Rua David Cruz,Boa Vista,RR,69303-482,BR,-60.67408,2.80978
Rua de Contorno do Centro Administrativo,Camaçari,BA,42800-915,BR,-38.31887,-12.70825
Rua Dei Loyola Soares,Londrina,PR,86082-750,BR,-51.16728,-23.25668
Rua Delacir Toffoli,Campinas,SP,13098-765,BR,-46.99626,-22.78669
Rua Délcio Amorim,Navegantes,SC,88372-692,BR,-49.5946,-27.17989
Rua Delfim Moreira,Lages,SC,88523-230,BR,-50.30303,-27.79994
Rua Demézio Nabarreti,Leme,SP,13614-300,BR,-47.3935,-22.17064
Rua Demóstenes de Olinda,Camaragibe,PE,54789-045,BR,-34.99165,-7.98381
Rua Deodápolis,Campo Grande,MS,79044-847,BR,-54.54528,-20.47052
Rua Deputado Américo Peixoto,São Gonçalo,RJ,24476-570,BR,-43.01358,-22.76932
Rua Deputado Antônio Edu Vieira,Florianópolis,SC,88040-001,BR,-48.5236,-27.61028
Rua Deputado Armando Lages,Maceió,AL,57080-870,BR,-35.74704,-9.59524
Rua Deputado Joaquim Linhares de Lacerda,Curitiba,PR,80240-560,BR,-49.25096,-25.40629
Rua Deputado Roberto Cardoso Alves,Guaratinguetá,SP,12510-510,BR,-45.24866,-22.77772
Rua Deputado Souto Filho,Caruaru,PE,55012-310,BR,-35.96978,-8.28141
Rua Desembargador Adalberto Correia Lima,Teresina,PI,64049-916,BR,-42.7969,-5.05388
Rua Desembargador Gonçalves,Salvador,BA,40110-020,BR,-38.5238,-12.99204
Rua Desembargador Izidro,Rio de Janeiro,RJ,20521-160,BR,-43.23317,-22.92696
Rua Desembargador Mármore Neto,Salvador,BA,41635-160,BR,-38.3893,-12.94294
Rua Desembargador Teixeira de Freitas,Candeias,BA,43810-235,BR,-38.54558,-12.66369
Rua Devair Leão,Belford Roxo,RJ,26183-625,BR,-43.41635,-22.70408
Rua Devaldo Borges,Gravatá,PE,55640-208,BR,-35.56963,-8.17671
Rua Dez,Campo Largo,PR,83603-360,BR,-49.55807,-25.4646
Rua Dez,Guarapari,ES,29220-290,BR,-40.47498,-20.62543
Rua Dez,Teresina,PI,64028-843,BR,-42.77184,-5.00843
Rua Dez,Teresina,PI,64034-256,BR,-42.77184,-5.00843
Rua Dezenove,Aracaju,SE,49044-169,BR,-37.0979,-10.98251
Rua Dezesseis,Cuiabá,MT,78090-818,BR,-56.02624,-15.63319
Rua Dezesseis,São Luís,MA,65058-536,BR,-44.20309,-2.57873
Rua Dezesseis,Serra,ES,29177-350,BR,-40.31253,-20.11685
Rua Dezessete de Outubro,Arcoverde,PE,56519-370,BR,-37.07692,-8.41174
Rua Dezessete,Camaragibe,PE,54777-168,BR,-34.99311,-7.99966
Rua Dezessete,Resende,RJ,27524-742,BR,-44.49765,-22.48847
Rua Dezoito,Resende,RJ,27524-744,BR,-44.50288,-22.47296
Rua Diamante,Campo Limpo Paulista,SP,13232-445,BR,-46.76594,-23.20468
Rua Diamante,Cariacica,ES,29146-674,BR,-40.3791,-20.34685
Rua Diamantina,Cariacica,ES,29155-040,BR,-40.38402,-20.30214
Rua Diamantina,Magé,RJ,25919-459,BR,-43.17558,-22.63466
Rua Diamantino Alves Cabo,Petrópolis,RJ,25730-018,BR,-43.18204,-22.50384
Rua Dias Gomes,Garanhuns,PE,55299-350,BR,-36.46014,-8.88321
Rua Diderot Ribeiro,Natal,RN,59073-068,BR,-35.2218,-5.87461
Rua Dilson Funaro,Rio de Janeiro,RJ,23570-650,BR,-43.65797,-22.91645
Rua Dilton Raposo,Ilhéus,BA,45650-534,BR,-39.04756,-14.78782
Rua Dimas Miranda de Barros,Curitiba,PR,81590-619,BR,-49.19937,-25.48379
Rua Dinah Silveira de Queiroz,São Paulo,SP,05119-090,BR,-46.73631,-23.49319
Rua Diogo das Neves Pires,São Paulo,SP,04840-350,BR,-46.68269,-23.7573
Rua Diogo Gomes Filho,Sorocaba,SP,18077-510,BR,-47.4789,-23.45215
Rua Diogo Grasson Tinoco,São Paulo,SP,02435-010,BR,-46.63822,-23.48022
Rua Diogo Sanches Fernandes,Itatiba,SP,13257-851,BR,-46.88593,-22.96246
Rua Dirce de Almeida Fantini,Ribeirão Preto,SP,14070-732,BR,-47.79037,-21.10911
Rua Dirce Vieira,Barbacena,MG,36200-418,BR,-43.76846,-21.23327
Rua Dirceu da Conceição Pinto,São Paulo,SP,02765-080,BR,-46.6722,-23.47667
Rua Direitos Humanos,São José do Rio Preto,SP,15045-512,BR,-49.39894,-20.77653
Rua Divino Pai Eterno,Rondonópolis,MT,78714-118,BR,-54.65018,-16.43533
Rua DJ - 045,Brusque,SC,88359-234,BR,-50.32649,-27.82428
Rua do Araçá,São Bernardo do Campo,SP,09832-080,BR,-46.60942,-23.73754
Rua do Cacau,Guarulhos,SP,07144-430,BR,-46.51684,-23.40193
Rua do Campo,Arcoverde,PE,56503-565,BR,-37.06407,-8.41867
Rua do Campo,Cariacica,ES,29142-728,BR,-40.37204,-20.38778
Rua do Campo,São Luís,MA,65040-390,BR,-44.20076,-2.60399
Rua do Campo,São Luís,MA,65082-744,BR,-44.35624,-2.73466
Rua do Chafariz,Recife,PE,52080-663,BR,-34.91942,-8.01333
Rua do Colibri,Colombo,PR,83401-180,BR,-49.23376,-25.31948
Rua do Cruzeiro,Rio de Janeiro,RJ,20941-290,BR,-43.68992,-22.92168
Rua do Hortelã,São Luís,MA,65043-540,BR,-44.25511,-2.55803
Rua do Igarapé,Manaus,AM,69035-814,BR,-60.08814,-2.98482
Rua do Japão,São Luís,MA,65085-400,BR,-44.33557,-2.54791
Rua do Jatobá,São Luís,MA,65043-660,BR,-44.28072,-2.56782
Rua do Malvarisco,São Paulo,SP,03987-100,BR,-46.51161,-23.60487
Rua do Minuano,Campo Grande,MS,79080-520,BR,-54.62973,-20.48789
Rua do Mogno,Rio Verde,GO,75910-036,BR,-50.90761,-17.76297
Rua do Norte,Vitória de Santo Antão,PE,55608-273,BR,-35.30327,-8.10795
Rua do Noturno,Rio de Janeiro,RJ,22260-162,BR,-43.38005,-22.83232
Rua do Ouro,Goiânia,GO,74375-670,BR,-49.32671,-16.69052
Rua do Passeio,Campinas,SP,13104-144,BR,-46.97589,-22.85684
Rua do Portal,Embu das Artes,SP,06805-240,BR,-46.8474,-23.627
Rua do Salto,Vitória de Santo Antão,PE,55614-100,BR,-35.27219,-8.09188
Rua do Sítio,Rio de Janeiro,RJ,23059-782,BR,-43.286,-22.91542
Rua do Sol,São Luís,MA,65090-793,BR,-44.30503,-2.69091
Rua do Sossego,Campo Grande,MS,79015-460,BR,-54.58147,-20.40101
Rua do Sossego,Salvador,BA,40352-343,BR,-38.46044,-12.97008
Rua do Taquari,Petrolina,PE,56330-060,BR,-40.49506,-9.38135
Rua Dois Mil Cento e Sessenta e Sete,São Vicente,SP,11330-770,BR,-46.37289,-23.95377
Rua Dois,Bauru,SP,17056-265,BR,-49.05703,-22.3589
Rua Dois,Contagem,MG,32143-440,BR,-44.03139,-19.90868
Rua Dois,Governador Valadares,MG,35024-003,BR,-41.99295,-18.89856
Rua Dois,Guarulhos,SP,07130-543,BR,-46.39124,-23.44237
Rua Dolcinópolis,Campo Grande,MS,79106-020,BR,-54.68978,-20.44026
Rua Dolores Ribeiro Fagundes,Londrina,PR,86082-850,BR,-51.15968,-23.2584
Rua Dom Aguirre,Bragança Paulista,SP,12900-430,BR,-46.54415,-22.95605
Rua Dom Antônio Luiz de Souza,Caraguatatuba,SP,11676-330,BR,-45.34469,-23.59463
Rua Dom Basílio,Camaragibe,PE,54774-195,BR,-35.00634,-8.01857
Rua Dom Eugênio de Araújo Sales,Campinas,SP,13068-305,BR,-47.15,-22.8607
Rua Dom Expedito,Natal,RN,59065-410,BR,-35.22187,-5.83907
Rua Dom Manoel,Balneário Camboriú,SC,88337-045,BR,-48.62734,-27.01211
Rua Dom Pedro II,Fortaleza,CE,60184-260,BR,-38.46915,-3.72739
Rua Dom Pedro II,Porto Velho,RO,76820-136,BR,-63.88612,-8.75879
Rua Dom Pedro,Queimados,RJ,26317-090,BR,-43.58287,-22.71973
Rua Dom Viçoso,Rio de Janeiro,RJ,23026-490,BR,-43.63329,-22.98783
Rua Domingos Belmonte,São Paulo,SP,03716-100,BR,-46.53242,-23.50547
Rua Domingos Cássia,Ponta Porã,MS,79901-066,BR,-55.74146,-22.49059
Rua Domingos da Silva,Biguaçu,SC,88162-144,BR,-48.64452,-27.52695
Rua Domingos de Jesus Cassiano,Ponta Grossa,PR,84062-695,BR,-50.23676,-25.08038
Rua Domingos de Paschoal,Embu das Artes,SP,06803-005,BR,-46.8515,-23.6523
Rua Domingos Jorge Velho,Salto,SP,13323-591,BR,-47.26828,-23.2233
Rua Domingos José Barbosa,Guarapari,ES,29220-450,BR,-40.48527,-20.6245
Rua Domingos José Pelegi,São Paulo,SP,03581-190,BR,-46.49878,-23.55738
Rua Domingos Nascimbene,Cianorte,PR,87210-332,BR,-52.57695,-23.6552
Rua Domingos S. Gilio Lopes,Lorena,SP,12610-160,BR,-45.12533,-22.75865
Rua Domingos Strapasson,Curitiba,PR,82320-040,BR,-49.33411,-25.4064
Rua Domingos Tordin,Valinhos,SP,13275-095,BR,-46.98667,-22.9742
Rua Dona Antônia Couto,São Gonçalo,RJ,24726-123,BR,-42.95906,-22.78831
Rua Dona Cândida,São Paulo,SP,03324-080,BR,-46.48427,-23.51444
Rua Dona Carime,Anápolis,GO,75084-140,BR,-48.93468,-16.31375
Rua Dona Emília Scarparo,Mauá,SP,09321-460,BR,-46.44476,-23.65017
Rua Dona Laura Azevedo,Teresina,PI,64016-725,BR,-42.79997,-5.10632
Rua Dona Laura,Nova Iguaçu,RJ,26280-090,BR,-43.48686,-22.7393
Rua Dona Leopoldina,Londrina,PR,86039-510,BR,-51.13842,-23.32051
Rua Donatila França,Sete Lagoas,MG,35702-387,BR,-44.26972,-19.44077
Rua Donato Corrêa,Blumenau,SC,89032-450,BR,-49.14868,-26.90338
Rua Doracina Ricardo de Barros,Contagem,MG,32115-230,BR,-44.02993,-19.89172
Rua dos Alpes,Goiânia,GO,74433-240,BR,-49.31683,-16.71241
Rua dos Andarays,Teresópolis,RJ,25974-100,BR,-42.97903,-22.38796
Rua dos Angicos,Franca,SP,14405-631,BR,-47.44419,-20.57924
Rua dos Aricuris,Sinop,MT,78552-337,BR,-55.50849,-11.82752
Rua dos Buiucus,Araguaína,TO,77824-816,BR,-48.19403,-7.17841
Rua dos Canários,Aracruz,ES,29190-806,BR,-40.27842,-19.7965
Rua dos Canários,Votuporanga,SP,15503-114,BR,-49.96151,-20.39958
Rua dos Cirurgiões Dentistas,São José dos Campos,SP,12248-515,BR,-45.80303,-23.17124
Rua dos Colibris,Pinhais,PR,83327-150,BR,-49.1625,-25.40545
Rua dos Cravos,Várzea Grande,MT,78117-306,BR,-56.08555,-15.64051
Rua dos Crisântemos,Blumenau,SC,89066-326,BR,-49.0942,-26.85507
Rua dos Curiós,Florianópolis,SC,88058-706,BR,-48.37957,-27.44653
Rua dos Diamantes,Goiânia,GO,74663-260,BR,-49.21808,-16.68378
Rua dos Eletrecistas,Cariacica,ES,29148-712,BR,-40.41761,-20.3433
Rua dos Empresários,São Mateus,ES,29930-620,BR,-39.85978,-18.72237
Rua dos Escritores,São José,SC,88119-308,BR,-48.64839,-27.56809
Rua dos Filodendros,Atibaia,SP,12946-715,BR,-46.54797,-23.14664
Rua dos Girassóis,Itapira,SP,13976-405,BR,-46.83723,-22.42744
Rua dos Gráficos,Bauru,SP,17022-440,BR,-49.08698,-22.27558
Rua dos Guatambus,Jales,SP,15704-248,BR,-50.54733,-20.28046
Rua dos Industriários,Macaé,RJ,27915-310,BR,-41.77653,-22.38793
Rua dos Jacarandás,Bragança Paulista,SP,12918-223,BR,-46.52809,-22.99614
Rua dos Jerivás,Goiânia,GO,74680-015,BR,-49.20639,-16.72539
Rua dos Lírios,Goiânia,GO,74885-780,BR,-49.32048,-16.70393
Rua dos Lírios,Maricá,RJ,24930-484,BR,-42.88465,-22.92988
Rua dos Manacás,Campinas,SP,13050-078,BR,-47.09091,-22.94659
Rua dos Morangos,Japeri,RJ,26425-200,BR,-43.62746,-22.67837
Rua dos Oboés,Belo Horizonte,MG,30850-480,BR,-44.00581,-19.92088
Rua dos Peixes,Goiânia,GO,74740-230,BR,-49.20659,-16.68976
Rua dos Pirangueiros,Botucatu,SP,18619-286,BR,-48.45621,-22.8905
Rua dos Profetas,Ji-Paraná,RO,76914-774,BR,-61.93526,-10.89827
Rua dos Suíços,Joinville,SC,89220-801,BR,-48.91174,-26.27769
Rua dos Tintureiros,Londrina,PR,86044-312,BR,-51.12798,-23.38386
Rua dos Três Poderes,Alagoinha do Piauí,PI,64655-970,BR,-40.93522,-7.01071
Rua dos Xerentes,Aparecida de Goiânia,GO,74983-719,BR,-49.24345,-16.79029
Rua Doutor Alberto Vieira Lima,Juiz de Fora,MG,36050-070,BR,-43.35127,-21.74166
Rua Doutor Alfredo Alves de Albuquerque,Santa Luzia,MG,33010-580,BR,-43.85375,-19.76031
Rua Doutor Aluísio Marques,Recife,PE,50810-320,BR,-34.95888,-8.04138
Rua Doutor Álvaro de Lacerda,Campos dos Goytacazes,RJ,28013-440,BR,-41.35051,-21.74217
Rua Doutor Antiógenes Chaves,Recife,PE,50110-121,BR,-34.92262,-8.00016
Rua Doutor Antônio Andrade Costa,Guaratinguetá,SP,12517-130,BR,-45.18059,-22.80181
Rua Doutor Antonio Atallah,Ribeirão Preto,SP,14079-624,BR,-47.7583,-21.14674
Rua Doutor Antonio Faria de Miranda,São Paulo,SP,04895-041,BR,-46.65505,-23.86677
Rua Doutor Antônio Joaquim de Melo,Campos dos Goytacazes,RJ,28020-190,BR,-41.29866,-21.78163
Rua Doutor Antônio José Gomes dos Santos,Petrópolis,RJ,25725-500,BR,-43.19891,-22.4483
Rua Doutor Area Leão,Teresina,PI,64016-745,BR,-42.81593,-5.07493
Rua Doutor Armando de Arruda Pereira,Santo André,SP,09050-070,BR,-46.52215,-23.69543
Rua Doutor Breno Fernandes da Silva,Teófilo Otoni,MG,39803-500,BR,-41.51153,-17.85199
Rua Doutor Celso Galvão,Itaboraí,RJ,24812-396,BR,-42.88319,-22.75656
Rua Doutor Dias Maciel,Luziânia,GO,72812-150,BR,-47.94992,-16.24813
Rua Doutor Geraldo Cosme de Menezes,Cruzeiro,SP,12721-628,BR,-44.94819,-22.5596
Rua Doutor Godofredo Lutz Luce,Jaraguá do Sul,SC,89258-190,BR,-49.07677,-26.49247
Rua Doutor Gregório de Oliveira e Castro,São Paulo,SP,08090-390,BR,-46.42797,-23.47999
Rua Doutor Henrique,São Luís,MA,65055-471,BR,-44.2526,-2.54215
Rua Doutor Inácio de Barros,Cabo de Santo Agostinho,PE,54505-440,BR,-35.03771,-8.28966
Rua Doutor João Clementino,Duque de Caxias,RJ,25036-120,BR,-43.31682,-22.76192
Rua Doutor Joaquim Nabuco,São Lourenço da Mata,PE,54735-790,BR,-35.04155,-7.99596
Rua Doutor José Mariano,Belo Horizonte,MG,30210-170,BR,-43.9108,-19.95421
Rua Doutor José Pimentel,Criciúma,SC,88811-090,BR,-49.36784,-28.67106
Rua Doutor José Ribeiro Gonçalves,Teresina,PI,64048-455,BR,-42.78979,-5.05296
Rua Doutor Lauro Wolff Valente,Curitiba,PR,81070-010,BR,-49.29702,-25.47456
Rua Doutor Leopoldo Florentino de Oliveira e Silva,Maceió,AL,57048-040,BR,-35.75312,-9.56434
Rua Doutor Luciano de França Sodré,Campina Grande,PB,58423-218,BR,-35.92285,-7.24973
Rua Doutor Ludovice,Uberaba,MG,38026-050,BR,-47.9272,-19.76166
Rua Doutor Manoel Brasil,Macapá,AP,68904-345,BR,-51.09681,0.01131
Rua Doutor Manoel Victorino,Santos,SP,11060-430,BR,-46.3358,-23.96269
Rua Doutor Mariano Cursino de Moura,São Paulo,SP,03451-000,BR,-46.51771,-23.55991
Rua Doutor Mário da Fonseca Filho,Patos de Minas,MG,38706-194,BR,-46.50239,-18.61684
Rua Doutor Mário Jorge,Ponta Grossa,PR,84030-220,BR,-50.11159,-25.08478
Rua Doutor Mário Rodolfo Araújo Filho,Recife,PE,50950-110,BR,-34.98739,-8.06748
Rua Doutor Morais Lima,Ribeirão Preto,SP,14092-160,BR,-47.77305,-21.1752
Rua Doutor Nelly Piccoli,Itajaí,SC,88308-635,BR,-48.69889,-26.92665
Rua Doutor Octávio Monteiro Becker,São José dos Campos,SP,12236-066,BR,-45.89378,-23.24664
Rua Doutor Osvaldo Salsa,Recife,PE,52011-170,BR,-34.9024,-8.04976
Rua Doutor Reynaldo Machado,Curitiba,PR,80215-010,BR,-49.25797,-25.44579
Rua Doutor Salim Bonemer Filho,Bebedouro,SP,14701-638,BR,-48.4923,-20.9439
Rua Doutor Sebastião Otranto,Campinas,SP,13075-620,BR,-47.06475,-22.87862
Rua Doutor Seidel,São Paulo,SP,05315-000,BR,-46.73554,-23.53258
Rua Doutor Serafim Enoss Bertaso - E,Chapecó,SC,89806-145,BR,-52.59883,-27.09267
Rua Doutor Theodoro de Souza Brandão,Osasco,SP,06045-150,BR,-46.79627,-23.57225
Rua Doutor Virgílio Paiva Júnior,Amparo,SP,13900-271,BR,-46.74994,-22.69918
Rua Doutor Vitor Juliano Ribeiro,Fortaleza,CE,60337-305,BR,-38.56711,-3.70997
Rua Doutor Wanderley Armando Potério,Mogi Mirim,SP,13803-801,BR,-46.97817,-22.46211
Rua Doutor Wenceslau Brás,Guarulhos,SP,07197-190,BR,-46.51546,-23.45621
Rua Doze de Outubro,Tubarão,SC,88706-248,BR,-48.99307,-28.49305
Rua Doze,Itaboraí,RJ,24805-729,BR,-42.92388,-22.77708
Rua Doze,São João Del Rei,MG,36300-430,BR,-44.25734,-21.11785
Rua Doze,Teresina,PI,64011-623,BR,-42.69288,-5.08659
Rua Dozolina Botta,Uberaba,MG,38038-316,BR,-47.91599,-19.72264
Rua Duas Irmãs,São Paulo,SP,04866-175,BR,-46.72623,-23.80341
Rua Duque de Caxias,Cacoal,RO,76963-818,BR,-61.44236,-11.43386
Rua Durval Fernandes Chaves,São Paulo,SP,05136-230,BR,-46.74981,-23.50147
Rua Durvalina Costa da Silva,Caçapava,SP,12285-405,BR,-45.72088,-23.12637
Rua Durvalina Firmino Alves,Taboão da Serra,SP,06766-400,BR,-46.78027,-23.623
Rua Durvalina Moura de Andrade,Macaé,RJ,27963-698,BR,-41.75591,-22.33562
Rua Durvalina Quintino da Cruz,Uberaba,MG,38039-770,BR,-47.74254,-19.74476
Rua Duzentos e Quarenta e Três,Volta Redonda,RJ,27265-445,BR,-44.12724,-22.52508
Rua E,Belém,PA,66640-559,BR,-48.45101,-1.4064
Rua E,Belford Roxo,RJ,26155-504,BR,-43.35479,-22.74317
Rua E,Duque de Caxias,RJ,25042-250,BR,-43.30288,-22.79619
Rua E,Macapá,AP,68903-118,BR,-51.06742,0.00465
Rua E,Marabá,PA,68504-220,BR,-49.07841,-5.33544
Rua E,Vitória da Conquista,BA,45009-408,BR,-40.78179,-14.8358
Rua E,Vitória da Conquista,BA,45075-580,BR,-40.78179,-14.8358
Rua Ébano,Rio de Janeiro,RJ,20930-060,BR,-43.23501,-22.8888
Rua Ecléia,Nova Iguaçu,RJ,26088-115,BR,-43.53927,-22.71452
Rua Edgar Sanches,Salvador,BA,41321-465,BR,-38.42886,-12.90307
Rua Edgard Leite de Castro,Belo Horizonte,MG,31640-330,BR,-43.97094,-19.79444
Rua Edgard Máximo Zamboto,Franco da Rocha,SP,07810-160,BR,-46.7583,-23.31987
Rua Edgard Silva Lima,Marília,SP,17527-030,BR,-49.97107,-22.22682
Rua Edilberto Trigueiro,Petrolina,PE,56309-210,BR,-40.50887,-9.39473
Rua Ediméia Pereira Bernardo,Paulínia,SP,13145-787,BR,-47.17705,-22.72558
Rua Edivaldo Soares da Silva,Arcoverde,PE,56503-451,BR,-37.06074,-8.42904
Rua Edmundo Alberto Mercer,Curitiba,PR,82620-120,BR,-49.2256,-25.38357
Rua Edmundo Cabrera,Sete Lagoas,MG,35703-674,BR,-44.19777,-19.41729
Rua Edmundo Pereira de Farias,Campina Grande,PB,58410-813,BR,-35.87561,-7.24646
Rua Edson Noriller,São Bento do Sul,SC,89287-165,BR,-49.40058,-26.25354
Rua Edson Nunes de Paula,Patos de Minas,MG,38701-638,BR,-46.5315,-18.5542
Rua Edson Rontani,Piracicaba,SP,13420-828,BR,-47.60395,-22.73729
Rua Eduardo Brasão,São Gonçalo,RJ,24711-171,BR,-42.99628,-22.81693
Rua Eduardo Dantas do Espírito Santo,Aracaju,SE,49042-140,BR,-37.08383,-10.96777
Rua Eduardo Engelhardt,Curitiba,PR,82970-240,BR,-49.19874,-25.4723
Rua Eduardo Hoffmann,Sumaré,SP,13179-418,BR,-47.16748,-22.81221
Rua Eduardo Ramos,Presidente Prudente,SP,19033-480,BR,-51.38286,-22.10191
Rua Eduardo Ramos,São Paulo,SP,04822-270,BR,-46.69349,-23.7354
Rua Eduardo Zumkeller,São Paulo,SP,02420-030,BR,-46.63537,-23.47564
Rua EF2,Goiânia,GO,74392-040,BR,-49.34971,-16.73265
Rua Eldorado,Guarulhos,SP,07272-260,BR,-46.41903,-23.46776
Rua Eldorado,Rio Branco,AC,69919-380,BR,-67.77026,-10.00581
Rua Elias Cândido de Souza,Franca,SP,14409-175,BR,-47.39644,-20.51014
Rua Elias Duarte da Silva,Itaboraí,RJ,24858-600,BR,-42.93815,-22.78298
Rua Elis Regina,São Paulo,SP,05273-010,BR,-46.80444,-23.43784
Rua Elisa Premier,Guarulhos,SP,07142-680,BR,-46.49761,-23.41969
Rua Elisa Silveira,São Paulo,SP,04152-000,BR,-46.62825,-23.62243
Rua Elisabetta Battilana,Sumaré,SP,13178-654,BR,-47.20359,-22.80911
Rua Eliza Pinto da Silveira,Tatuí,SP,18274-660,BR,-47.85024,-23.39845
Rua Elizabete Bortolomai,Bauru,SP,17057-651,BR,-49.13139,-22.32298
Rua Elizabeth Steagall Pirtouscheg,Santa Bárbara D'Oeste,SP,13451-019,BR,-47.42668,-22.75175
Rua Elízio Honorato dos Santos,Curitiba,PR,81170-390,BR,-49.32379,-25.51619
Rua ELO11,Goiânia,GO,74490-275,BR,-49.40451,-16.68686
Rua Elpídio Bruno Garcia,Jaraguá do Sul,SC,89265-245,BR,-49.18563,-26.46614
Rua Elvira Boghi Louzada,Cachoeiro de Itapemirim,ES,29314-170,BR,-41.18171,-20.83321
Rua Elviro Cabral,Aparecida de Goiânia,GO,74988-808,BR,-49.34863,-16.78908
Rua Ely Pinto da Silva,Uberaba,MG,38057-712,BR,-47.92346,-19.78261
Rua Elydio Pontes,Ribeirão Preto,SP,14065-270,BR,-47.82733,-21.13598
Rua EM 37,Aparecida de Goiânia,GO,74910-790,BR,-49.24428,-16.7396
Rua Ema,Itaguaí,RJ,23825-010,BR,-43.87097,-22.90227
Rua Emanuel Tomaz de Araújo,Seropédica,RJ,23895-150,BR,-43.70086,-22.74372
Rua Embaixador Edmundo da Luz Pinto,Florianópolis,SC,88025-050,BR,-48.54078,-27.58085
Rua Emboabas,Araguari,MG,38441-026,BR,-48.20922,-18.66964
Rua Emerenciana Alves Neves,Marília,SP,17539-108,BR,-49.88641,-22.22355
Rua Emerson Radamés Gatto,São Carlos,SP,13568-640,BR,-47.84764,-22.01687
Rua Emília,São Bernardo do Campo,SP,09830-220,BR,-46.53316,-23.78066
Rua Emiliano Felipe,Rio de Janeiro,RJ,21230-145,BR,-43.33227,-22.82087
Rua Emílio Goeldi,Rio de Janeiro,RJ,21511-440,BR,-43.3555,-22.83904
Rua Emílio Leão Brambilla,Americana,SP,13478-170,BR,-47.31906,-22.73383
Rua Encontrista Artur Alfredo Galvez,Navegantes,SC,88372-818,BR,-48.63721,-26.83702
Rua Ender,Rio de Janeiro,RJ,21530-160,BR,-43.35334,-22.82647
Rua Enfermeiro Manoel Ângelo,Recife,PE,52190-550,BR,-34.87036,-8.05603
Rua Enfermeiro Messias,Itaúna,MG,35680-323,BR,-44.58492,-20.07007
Rua Engenharia,Cascavel,PR,85819-190,BR,-53.44973,-24.98324
Rua Engenheiro Mercer,Campo Mourão,PR,87303-324,BR,-52.37088,-24.02758
Rua Engenheiro Paulo Correa e Castro,Juiz de Fora,MG,36060-580,BR,-43.32511,-21.73596
Rua Engenheiro Paulo Sérgio Oliveira Fonseca,Guapimirim,RJ,25941-175,BR,-43.0064,-22.6259
Rua Enrico Carafa,São Paulo,SP,02932-010,BR,-46.71019,-23.49532
Rua Enriente Morrino,Rio de Janeiro,RJ,22775-049,BR,-43.37079,-22.97451
Rua Episcopal,São Carlos,SP,13560-905,BR,-47.89188,-22.01143
Rua Erasmo Braga,Campinas,SP,13070-147,BR,-47.08125,-22.89502
Rua Erlinda Neiva Ayres,Palmas,TO,77064-750,BR,-48.3312,-10.21242
Rua Ernesto Asbeck,Suzano,SP,08692-015,BR,-46.31956,-23.49297
Rua Ernesto Capelari,Taboão da Serra,SP,06754-904,BR,-46.75666,-23.60802
Rua Ernesto de Fiori,Santana de Parnaíba,SP,06537-115,BR,-46.82584,-23.43071
Rua Ernesto Emídio do Couto,Mossoró,RN,59625-738,BR,-37.34422,-5.18784
Rua Ernesto Gatto,Leme,SP,13610-360,BR,-47.3921,-22.1906
Rua Ernesto Matricardi,Sertãozinho,SP,14164-160,BR,-48.00229,-21.12339
Rua Ernesto Molon,Ribeirão Pires,SP,09405-250,BR,-46.39962,-23.69844
Rua Ernesto Nazareth,Timóteo,MG,35180-702,BR,-42.63993,-19.54369
Rua Ernesto Serra,Londrina,PR,86087-645,BR,-51.14849,-23.27617
Rua Ernesto Tognolo,Belo Horizonte,MG,31970-170,BR,-43.88956,-19.85844
Rua Escritor José Lins do Rego,Ribeirão das Neves,MG,33821-470,BR,-44.12531,-19.79154
Rua Esparta,Jales,SP,15708-076,BR,-50.53091,-20.25911
Rua Espedito Izídio Andrade,Osasco,SP,06150-270,BR,-46.81466,-23.56529
Rua Esperança,Duque de Caxias,RJ,25211-360,BR,-43.23444,-22.60681
Rua Espinosa,Belo Horizonte,MG,31210-525,BR,-43.95857,-19.90808
Rua Espírito Santo Dourado,Guarulhos,SP,07140-340,BR,-46.49334,-23.42418
Rua Espírito Santo,Teresina,PI,64071-680,BR,-42.73283,-5.03993
Rua Espozalina Pereira Lopes,Aracruz,ES,29197-150,BR,-40.27442,-19.81953
Rua Estácio Bernardino Seixas,Franca,SP,14407-272,BR,-47.42741,-20.50906
Rua Estância Velha,Itaquaquecetuba,SP,08590-035,BR,-46.27614,-23.44834
Rua Estefânia,Curitiba,PR,82710-240,BR,-49.25755,-25.35783
Rua Estrela do Norte,Jaboatão dos Guararapes,PE,54355-646,BR,-35.00691,-8.17371
Rua Etelvino Custódio de Queiroz,Três Lagoas,MS,79645-655,BR,-51.6773,-20.77535
Rua Ettore Pistori,Londrina,PR,86086-030,BR,-51.14013,-23.24711
Rua Euclides da Rocha,Camaragibe,PE,54774-765,BR,-34.98985,-8.00634
Rua Euclides Miragaia,São José dos Campos,SP,12245-902,BR,-45.89304,-23.19249
Rua Eufrázia Pereira Camargo,Votorantim,SP,18115-700,BR,-47.4511,-23.56218
Rua Eunice Bastos Galvão,Lorena,SP,12609-110,BR,-45.11925,-22.7527
Rua Eurípedes Barsanulfo,Jacareí,SP,12312-370,BR,-45.97267,-23.30282
Rua Euro Luis Arantes,Belo Horizonte,MG,31845-410,BR,-43.91135,-19.8441
Rua Europa,Nova Iguaçu,RJ,26021-380,BR,-43.43206,-22.73074
Rua Eustáchio Alves de Souza,Santos,SP,11095-550,BR,-46.37265,-23.92623
Rua Evaristo Alves de Almeida,Araguari,MG,38442-176,BR,-48.17409,-18.64844
Rua Evaristo Atanásio de Melo,Uberlândia,MG,38414-648,BR,-48.34667,-18.94549
Rua Evaristo dos Santos,Araçatuba,SP,16022-731,BR,-50.45755,-21.23561
Rua Existente,São Luís,MA,65064-522,BR,-44.23884,-2.52129
Rua Expedicionário Benedito Patrício,Guaratinguetá,SP,12511-040,BR,-45.20474,-22.80674
Rua F,Aracaju,SE,49061-079,BR,-37.07446,-10.90921
Rua F,Barbacena,MG,36202-398,BR,-43.75855,-21.20358
Rua F,Crato,CE,63130-232,BR,-39.40561,-7.23089
Rua F,Ipatinga,MG,35162-628,BR,-42.53638,-19.46694
Rua F,Itabuna,BA,45608-582,BR,-39.28356,-14.82293
Rua F,Várzea Paulista,SP,13223-336,BR,-46.83116,-23.21073
Rua F,Vitória da Conquista,BA,45026-395,BR,-40.85828,-14.85335
Rua F2,Goiânia,GO,74583-510,BR,-49.364,-16.60523
Rua F46,Goiânia,GO,74350-390,BR,-49.26062,-16.66125
Rua Fabiano de Sousa Matos,Crato,CE,63113-672,BR,-39.42038,-7.23277
Rua Fabio Ramos,Curitiba,PR,82990-524,BR,-49.1923,-25.46562
Rua Fanor de Carvalho,Montes Claros,MG,39402-236,BR,-43.85758,-16.73801
Rua Faria Lobato,Belo Horizonte,MG,31555-050,BR,-43.98307,-19.84646
Rua Fátima Regina Pereira,Lins,SP,16403-107,BR,-49.74305,-21.67939
Rua Faustino Alves,Cabo Frio,RJ,28922-140,BR,-42.02309,-22.86968
Rua Fausto,Santo André,SP,09175-810,BR,-46.52095,-23.68477
Rua Feliciano Campagnacci,Juiz de Fora,MG,36088-512,BR,-43.44457,-21.70569
Rua Felício Falavinha,Colombo,PR,83413-090,BR,-49.16947,-25.3838
Rua Félicio Zamperlin,Americana,SP,13476-622,BR,-47.30896,-22.73325
Rua Felipe Elias Bucharles,Birigui,SP,16201-105,BR,-50.3379,-21.26994
Rua Felipe Portinho,Campo Grande,MS,79075-171,BR,-54.71232,-20.45832
Rua Félix Bernardelli,Rio de Janeiro,RJ,23078-030,BR,-43.58428,-22.88283
Rua Félix Moreira Leite,Barra do Piraí,RJ,27110-230,BR,-43.82329,-22.46429
Rua Fermino Marques de Brito,Araçatuba,SP,16058-500,BR,-50.45967,-21.15457
Rua Fernando de Noronha,Rio das Ostras,RJ,28893-292,BR,-41.95868,-22.52676
Rua Fernando Dias Ferraz,Itu,SP,13304-631,BR,-47.29379,-23.26046
Rua Fernando Góes Falcão,Cabo Frio,RJ,28905-050,BR,-42.02875,-22.87996
