STREET,CITY,REGION,ZIP,COUNTRY,LONGITUDE,LATITUDE
Rua Assis Valente,Praia Grande,SP,11709-100,BR,-46.58369,-24.07661
Rua Primeiro de Maio,Poá,SP,08560-030,BR,-46.33377,-23.52732
Rua Serra Acaraí,Itaquaquecetuba,SP,08581-070,BR,-46.35563,-23.4545
Rua Treze,Suzano,SP,08633-744,BR,-46.26721,-23.62562
Rua Jacinto Kerry Valente,São Paulo,SP,05089-050,BR,-46.72757,-23.5211
Rua General Horta,São Paulo,SP,05181-490,BR,-46.74394,-23.45465
Rua Renato de Castro,São Paulo,SP,05376-180,BR,-46.76533,-23.58046
Rua Antonina,São Paulo,SP,01255-010,BR,-46.68202,-23.54751
Rua Articura,São Paulo,SP,02084-150,BR,-46.59912,-23.49512
Rua João de Lara da Cunha,São Paulo,SP,02190-080,BR,-46.5638,-23.50939
Rua Alípio de Sousa,São Paulo,SP,02201-020,BR,-46.59127,-23.48573
Avenida Major Roberto dos Santos,São Paulo,SP,02224-010,BR,-46.57557,-23.4844
Rua Tríplice Aliança,São Paulo,SP,02320-160,BR,-46.59449,-23.4475
Praça Antônio Zunkeller Leite,São Paulo,SP,02408-000,BR,-46.62762,-23.48379
Via de Pedestre Natureza Morta,São Paulo,SP,08050-260,BR,-46.71359,-23.73289
Travessa João Antonio,São Bernardo do Campo,SP,09791-255,BR,-46.54196,-23.73522
Avenida Conselheiro Nébias,Santos,SP,11045-901,BR,-46.32321,-23.95508
Rua Eustáchio Alves de Souza,Santos,SP,11095-550,BR,-46.37265,-23.92623
Rua Dois Mil Cento e Sessenta e Sete,São Vicente,SP,11330-770,BR,-46.37289,-23.95377
Rua Peçanha,São Paulo,SP,03934-075,BR,-46.50227,-23.59082
Rua Ibiracatu,São Paulo,SP,03940-070,BR,-46.49758,-23.59208
Alameda dos Anapurus,São Paulo,SP,04087-907,BR,-46.65983,-23.60912
Rua Cristo Redentor,São Paulo,SP,04236-260,BR,-46.7196,-23.49034
Rua Leucina,São Paulo,SP,04318-100,BR,-46.63457,-23.64571
Rua Rio Grande do Sul,São Paulo,SP,04412-070,BR,-46.64454,-23.67252
Travessa Arroio Primavera,São Paulo,SP,05574-280,BR,-46.80124,-23.58618
Rua Francisco José Rodrigues Neto,São Paulo,SP,05657-225,BR,-46.72008,-23.6193
Alameda Aroeira Vermelha,Osasco,SP,06030-314,BR,-46.77214,-23.55925
Rua João Bitencourt,Osasco,SP,06038-090,BR,-46.77767,-23.56488
Praça Antônio Menk,Osasco,SP,06097-060,BR,-46.77553,-23.52895
Viela Geraldo Ribeiro Moreira,Osasco,SP,06240-210,BR,-46.80093,-23.50103
Alameda Espanha,Carapicuíba,SP,06355-469,BR,-46.86736,-23.55668
Rua Bálsamo,Carapicuíba,SP,06381-310,BR,-46.83994,-23.54709
Rua Yen,Barueri,SP,06410-040,BR,-46.87068,-23.50354
Rua Francisco Gonçalves Pinto,Santana de Parnaíba,SP,06503-115,BR,-46.93552,-23.45137
Alameda Bali,Santana de Parnaíba,SP,06543-085,BR,-46.86073,-23.47242
Rua Francisco de Barros Cobra,Jandira,SP,06624-020,BR,-46.90719,-23.55356
Rua Áries,Cotia,SP,06709-660,BR,-46.84041,-23.57816
Rua Cândido Sales,Mogi das Cruzes,SP,08774-150,BR,-46.28101,-23.46634
Travessa Santana,Santo André,SP,09071-460,BR,-46.54887,-23.65726
Rua Angico,Santo André,SP,09175-700,BR,-46.51735,-23.68571
Rua Victório Chiarotti,Mauá,SP,09340-350,BR,-46.43855,-23.67312
Rua São Roque,Mauá,SP,09370-210,BR,-46.46121,-23.67179
Rua do Portal,Embu das Artes,SP,06805-240,BR,-46.8474,-23.627
Rua José Marcelino da Silva,Embu das Artes,SP,06806-025,BR,-46.83768,-23.63989
Rua Augusto de Almeida Batista,Embu das Artes,SP,06814-165,BR,-46.81306,-23.66478
Rua Augusta,Guarulhos,SP,07025-130,BR,-46.54553,-23.48162
Rua Assis,Guarulhos,SP,07031-180,BR,-46.40396,-23.44448
Rua Urutaí,Guarulhos,SP,07050-170,BR,-46.55042,-23.46215
Rua Carlos Rodrigues,Guarulhos,SP,07084-320,BR,-46.53815,-23.48091
Praça Cabo Eutrópio Wilhelm de Freitas,Guarulhos,SP,07096-232,BR,-46.50768,-23.44353
Rua Dois,Guarulhos,SP,07130-543,BR,-46.39124,-23.44237
Rua São João do Oriente,Guarulhos,SP,07133-060,BR,-46.51107,-23.43968
Rua Lagoa das Pedras,Guarulhos,SP,07151-760,BR,-46.45545,-23.40315
Viela Teerã,Guarulhos,SP,07152-560,BR,-46.46322,-23.40435
Rua Jefe,Guarulhos,SP,07160-240,BR,-46.45088,-23.4104
Rua Tabocas,Guarulhos,SP,07161-456,BR,-46.43438,-23.39059
Avenida Doutor José Luis Leme Maciel,Cajamar,SP,07786-450,BR,-46.82728,-23.33325
Rua Malvina Maria de Oliveira,Cotia,SP,06726-465,BR,-47.042,-23.66531
Rua Joaquim Pires de Oliveira,Cotia,SP,06727-186,BR,-47.05422,-23.71513
Estrada da Capelinha,Cotia,SP,06729-990,BR,-46.9171,-23.57104
Rua Filadélfia,São Paulo,SP,04564-050,BR,-46.68787,-23.61196
Viela Purini,São Paulo,SP,04770-200,BR,-46.71701,-23.68276
Rua Jaime Biscarri,São Paulo,SP,04848-130,BR,-46.67549,-23.73475
Rua Luiz Batista Silveira,Assis,SP,19804-190,BR,-50.4331,-22.66192
Rua Castro Alves,Assis,SP,19814-060,BR,-50.41212,-22.65657
Ilha do Sol,Rio de Janeiro,RJ,20180-007,BR,-43.18668,-22.78626
Rua Santa Filomena,Rio de Janeiro,RJ,20270-110,BR,-43.21451,-22.91457
Beco Jackson do Pandeiro,Rio de Janeiro,RJ,21041-430,BR,-43.28934,-23.01
Rua Santa Bárbara,Rio de Janeiro,RJ,21220-790,BR,-43.27432,-22.85973
Rua Andrade Araújo,Rio de Janeiro,RJ,21341-311,BR,-43.35167,-22.87926
Rua Renovação,Rio de Janeiro,RJ,21525-250,BR,-43.35058,-22.81761
Rua Ender,Rio de Janeiro,RJ,21530-160,BR,-43.35334,-22.82647
Praça Estoril,Rio de Janeiro,RJ,21610-500,BR,-43.3704,-22.86536
Rua Paulo de Aquino,Rio de Janeiro,RJ,21645-500,BR,-43.37162,-22.82566
Rodovia Francisco Alves Negrão,Taquarivaí,SP,18425-970,BR,-48.69253,-23.92459
Rua João Tezza Neto,Avaré,SP,18701-813,BR,-48.89043,-23.10647
Rua Eduardo Zumkeller,São Paulo,SP,02420-030,BR,-46.63537,-23.47564
Travessa Isabela Leonarda,São Paulo,SP,02545-120,BR,-46.66613,-23.48433
Rua Mário de Sá Carneiro,São Paulo,SP,02882-140,BR,-46.66854,-23.46952
Rua Enrico Carafa,São Paulo,SP,02932-010,BR,-46.71019,-23.49532
Rua São Urbano,São Paulo,SP,02966-000,BR,-46.70995,-23.46952
Rua da Mooca,São Paulo,SP,03165-901,BR,-46.58198,-23.56178
Rua Santo Antônio do Ica,São Paulo,SP,03265-140,BR,-46.53989,-23.59569
Alameda Aurora,Bragança Paulista,SP,12916-397,BR,-46.52099,-22.99617
Rua dos Jacarandás,Bragança Paulista,SP,12918-223,BR,-46.52809,-22.99614
Rua José Rodrigues de Sousa,Bragança Paulista,SP,12926-332,BR,-46.54094,-22.93779
Rua Três,Atibaia,SP,12949-100,BR,-46.58479,-23.11591
Avenida das Amoreiras,Campinas,SP,13050-035,BR,-47.0919,-22.93373
Rua Abigail Zeni Nader,Campinas,SP,13054-500,BR,-47.12381,-22.98034
Rua Rodney Ricci,Campinas,SP,13056-227,BR,-47.1511,-22.98854
Rua Romeu Micheloni,Campinas,SP,13058-303,BR,-47.17491,-22.95032
Praça Noel Rosa,Campinas,SP,13070-109,BR,-47.09397,-22.94468
Rua Erasmo Braga,Campinas,SP,13070-147,BR,-47.08125,-22.89502
Rua Cotegipe,São José dos Campos,SP,12230-551,BR,-45.89167,-23.22662
Rua Roberto Baranov,São José dos Campos,SP,12234-190,BR,-45.90005,-23.28127
Rua Alenquer,São José dos Campos,SP,12235-800,BR,-45.9127,-23.25064
Rua Raimundo Batista Conceição,São José dos Campos,SP,12237-591,BR,-45.91275,-23.23911
Rua dos Cirurgiões Dentistas,São José dos Campos,SP,12248-515,BR,-45.80303,-23.17124
Travessa Ciro de Andrade,Caçapava,SP,12295-232,BR,-45.71773,-23.10305
Rua Montese,Jacareí,SP,12307-380,BR,-45.95546,-23.29655
Rua Campinas,Ribeirão Preto,SP,14075-070,BR,-47.79459,-21.1496
Rua Guiana Francesa,Ribeirão Preto,SP,14075-220,BR,-47.79337,-21.14925
Rotatória Maria do Rosário Kenan,Ribeirão Preto,SP,14079-100,BR,-47.76917,-21.21455
Rua Joaquim Manoel Justino,Sertãozinho,SP,14170-339,BR,-47.97227,-21.13005
Rua Matheus Benelli,Sertãozinho,SP,14171-115,BR,-47.98671,-21.15086
Rua Benedito Paula dos Santos,Guaratinguetá,SP,12505-220,BR,-45.20152,-22.81476
Rua Domingos S. Gilio Lopes,Lorena,SP,12610-160,BR,-45.12533,-22.75865
Rua Santo Onofre,Americana,SP,13469-416,BR,-47.31354,-22.72304
Rua Sétimo Fracalossi,Limeira,SP,13486-198,BR,-47.39032,-22.55915
Rua Maria Luísa Furlani Melchert,Campinas,SP,13088-135,BR,-47.03403,-22.86128
Rua Siqueira Campos,Campinas,SP,13106-970,BR,-47.0833,-22.90351
Rua Lauzino Ramos Ferreira,Sumaré,SP,13178-322,BR,-45.08374,-23.43806
Avenida Três,Sumaré,SP,13180-171,BR,-47.1993,-22.84579
Rua Quatorze,Hortolândia,SP,13185-022,BR,-47.19911,-22.85244
Praça Pompeu Perdiz,Jundiaí,SP,13207-749,BR,-46.89115,-23.18807
Rua Pássaro Preto,Jundiaí,SP,13212-824,BR,-47.01124,-23.20226
Rua Maria Luiza Gáspari Muller,Jundiaí,SP,13213-131,BR,-46.96275,-23.15035
Rua Maria Inês,Várzea Paulista,SP,13220-070,BR,-46.84653,-23.21167
Rua F,Várzea Paulista,SP,13223-336,BR,-46.83116,-23.21073
Rua Aruá,Várzea Paulista,SP,13225-572,BR,-46.84551,-23.22217
Rua Diamante,Campo Limpo Paulista,SP,13232-445,BR,-46.76594,-23.20468
Avenida Independência,Valinhos,SP,13276-030,BR,-46.99851,-22.97835
Rua Amsterdan,Indaiatuba,SP,13337-051,BR,-47.18444,-23.06483
Rua Boituva,Piracicaba,SP,13401-816,BR,-47.6732,-22.77968
Rua Waldomiro Pedroso,Santa Bárbara D'Oeste,SP,13450-357,BR,-47.41672,-22.76281
Alameda Camburiu,Bebedouro,SP,14708-078,BR,-48.49306,-20.91944
Rua Catanzaro,Araraquara,SP,14803-843,BR,-48.18547,-21.82973
Praça Francisco Alves,Mogi Mirim,SP,13800-057,BR,-46.9248,-22.43321
Rua Octávio Franco,Mogi Guaçu,SP,13848-443,BR,-46.9193,-22.35339
Rua João Ferreira Giao,São João da Boa Vista,SP,13871-097,BR,-46.77722,-22.00115
Rua Olegário Pereira da Silva,Itapira,SP,13973-026,BR,-46.8103,-22.45112
Rua Alfredo Condeixa,Ribeirão Preto,SP,14031-383,BR,-47.8457,-21.19822
Rua Japurá,Ribeirão Preto,SP,14060-406,BR,-47.8131,-21.13215
Travessa Paulo Coimbra Patto,Catanduva,SP,15810-376,BR,-48.97127,-21.13936
Rua Antônio Cerizza,Araçatuba,SP,16022-440,BR,-50.45912,-21.23993
Rua São Vicente,Araçatuba,SP,16050-070,BR,-50.4488,-21.20275
Rua Pedro Grassi,Araçatuba,SP,16075-185,BR,-50.4636,-21.18704
Avenida João Gregolin,Birigui,SP,16201-491,BR,-50.3216,-21.26177
Rua Odemir Constantino,Birigui,SP,16202-345,BR,-50.30538,-21.2891
Rua Piauí,Birigui,SP,16202-448,BR,-50.33012,-21.28378
Rua Coronel José Braúlio Junqueira de Andrade,Lins,SP,16401-140,BR,-49.74316,-21.6619
Travessa Catarino Sales da Exaltação,Lins,SP,16401-379,BR,-49.74212,-21.67172
Rua Fátima Regina Pereira,Lins,SP,16403-107,BR,-49.74305,-21.67939
Rua Antônio Garcia,Bauru,SP,17012-050,BR,-49.06589,-22.33304
Rua João Garcia Martinez,Bauru,SP,17021-180,BR,-49.07366,-22.30612
Rua Orlando Stefano,Bauru,SP,17048-180,BR,-49.03611,-22.36007
Rua Elizabete Bortolomai,Bauru,SP,17057-651,BR,-49.13139,-22.32298
Rua Padre Bonilha,Jaú,SP,17211-380,BR,-48.54193,-22.30593
Rua Waldemar Tomé,Marília,SP,17505-610,BR,-49.96693,-22.1943
Rua Athanízio Senna da Silva,Marília,SP,17512-816,BR,-49.97089,-22.15621
Rua Emerenciana Alves Neves,Marília,SP,17539-108,BR,-49.88641,-22.22355
Alameda Família Pagliato,Sorocaba,SP,18073-415,BR,-47.51776,-23.44083
Rua Antônio Matiello,Sorocaba,SP,18074-635,BR,-47.48559,-23.45226
Rua Francisco Ovidio,São José do Rio Preto,SP,15045-215,BR,-49.38846,-20.77979
Rua Celso Pereira dos Santos,São José do Rio Preto,SP,15052-872,BR,-49.4438,-20.78971
Rua Pedro Meira Sobrinho,Votorantim,SP,18115-320,BR,-47.43988,-23.55479
Rua Maria Augusta Ferreira,São Roque,SP,18132-653,BR,-47.14954,-23.5065
Rua Tarsila do Amaral,São Roque,SP,18143-856,BR,-46.50156,-23.4652
Rua Geraldo Vieira,Presidente Prudente,SP,19036-142,BR,-51.38071,-22.07168
Alameda Ana Maia Eugênio,Presidente Prudente,SP,19053-687,BR,-51.41801,-22.1451
Avenida Goiânia,Serra,ES,29171-201,BR,-40.24952,-20.13867
Avenida Fioravante Rossi,Colatina,ES,29703-041,BR,-40.67538,-19.53418
Rua Turmalina,Ribeirão das Neves,MG,33825-432,BR,-44.02059,-19.79338
Beco Santo Afonso,Ribeirão das Neves,MG,33938-412,BR,-44.15963,-19.76666
Rua D,Governador Valadares,MG,35039-710,BR,-41.9852,-18.88481
Rua Nicarágua,Ipatinga,MG,35160-125,BR,-42.5274,-19.49012
Rua Treze,Ipatinga,MG,35162-739,BR,-42.58274,-19.46935
Avenida Alberto Giovannini,Ipatinga,MG,35164-546,BR,-42.55587,-19.43668
Rua Ernesto Nazareth,Timóteo,MG,35180-702,BR,-42.63993,-19.54369
Rua Antônio Catuca,Caratinga,MG,35300-014,BR,-42.14362,-19.77873
Rua Antônio Alves,Caratinga,MG,35300-243,BR,-42.13483,-19.78338
Rua Independência,Ponte Nova,MG,35430-138,BR,-42.90046,-20.41159
Rua Acácia,Itaguaí,RJ,23831-490,BR,-43.78925,-22.69711
Rua Emanuel Tomaz de Araújo,Seropédica,RJ,23895-150,BR,-43.70086,-22.74372
Rua Porto Alegre,Niterói,RJ,24322-260,BR,-43.02937,-22.88648
Rua Maria Cândida de Oliveira,São Gonçalo,RJ,24422-560,BR,-43.01648,-22.82138
Travessa Joselina Andrade,São Gonçalo,RJ,24435-821,BR,-43.07873,-22.82034
Rua Paulo Cabral,São Gonçalo,RJ,24451-570,BR,-44.59637,-23.04117
Rua Almerinda Veloso da Cunha,São Gonçalo,RJ,24738-807,BR,-42.93512,-22.85543
Rua Quatro,Itaboraí,RJ,24804-373,BR,-42.90508,-22.7075
Rua IX,Itaboraí,RJ,24868-044,BR,-42.91954,-22.76499
Travessa Santa Rita,Rio de Janeiro,RJ,21853-620,BR,-43.49733,-22.85648
Caminho da Figueira,Rio de Janeiro,RJ,21854-152,BR,-43.30648,-22.98956
Rua Seis,Presidente Prudente,SP,19024-418,BR,-51.43861,-22.12723
Rua Francisco de Almeida Costa,Rio de Janeiro,RJ,23050-280,BR,-43.5632,-22.90508
Rua Operário Marcos Andreotti,Rio de Janeiro,RJ,23062-360,BR,-43.59634,-22.90413
Rua Butiá,Rio de Janeiro,RJ,23080-040,BR,-43.55691,-22.89993
Rua Major Gabriel Teles,Rio de Janeiro,RJ,23085-330,BR,-43.54469,-22.89771
Rua Reverendo Porto Filho,Rio de Janeiro,RJ,23090-850,BR,-43.56722,-22.87139
Rua Virgolino Alves Cardia,Rio de Janeiro,RJ,23095-500,BR,-43.55815,-22.87084
Rua Sebastião Rosa da Paz,Rio de Janeiro,RJ,23097-570,BR,-43.2036,-22.93421
Rua Joaquim de Freitas,Rio de Janeiro,RJ,23098-260,BR,-43.51017,-22.8712
Travessa Adir Jorge,Rio de Janeiro,RJ,23535-130,BR,-43.25252,-22.87843
Rua Jamil Dagli,Rio de Janeiro,RJ,23535-340,BR,-43.69829,-22.98498
Rua General Sidônio Dias Correia,Rio de Janeiro,RJ,22621-070,BR,-43.31212,-23.0114
Rua Macembu,Rio de Janeiro,RJ,22710-245,BR,-43.38013,-22.92885
Rua José Lewgoy,Rio de Janeiro,RJ,22750-065,BR,-43.3302,-22.95007
Rua Governador Leonel Brizola,Maricá,RJ,24933-400,BR,-42.96153,-22.96718
Rua Ubatuba,Maricá,RJ,24939-270,BR,-42.95683,-22.92526
Avenida Antônio Marcos da Costa,Belford Roxo,RJ,26110-070,BR,-43.36685,-22.76263
Rua Mossoró,Belford Roxo,RJ,26113-750,BR,-43.37868,-22.75432
Rua Santo Afonso,Belford Roxo,RJ,26177-320,BR,-43.35328,-22.71819
Rua Alexandre Repani,Magé,RJ,25900-403,BR,-43.02722,-22.63116
Rua Diamantina,Magé,RJ,25919-459,BR,-43.17558,-22.63466
Rua Vicente Paulo de Souza,Magé,RJ,25926-753,BR,-43.03575,-22.66054
Rua Cinco,Magé,RJ,25931-626,BR,-43.17219,-22.71361
Rua Engenheiro Paulo Sérgio Oliveira Fonseca,Guapimirim,RJ,25941-175,BR,-43.0064,-22.6259
Rua Laudelina Ferreira Moreira,Guapimirim,RJ,25949-325,BR,-42.95679,-22.50388
Servidão Jaci,Teresópolis,RJ,25970-794,BR,-42.99204,-22.44846
Rua Martim Afonso,Teresópolis,RJ,25974-190,BR,-42.98208,-22.3848
Estrada Contenda,Teresópolis,RJ,25995-600,BR,-42.95556,-22.38662
Rua Europa,Nova Iguaçu,RJ,26021-380,BR,-43.43206,-22.73074
Rua Doutor João Clementino,Duque de Caxias,RJ,25036-120,BR,-43.31682,-22.76192
Rua E,Duque de Caxias,RJ,25042-250,BR,-43.30288,-22.79619
Rua João da Luz,Duque de Caxias,RJ,25220-306,BR,-43.30353,-22.72812
Rua Carlos Maul,Duque de Caxias,RJ,25261-270,BR,-43.2626,-22.63836
Rua Lapa,Duque de Caxias,RJ,25265-180,BR,-43.2331,-22.65822
Ladeira Guilherme Wilbert,Petrópolis,RJ,25670-140,BR,-43.20856,-22.49015
Rua Olavo Bilac,Nova Friburgo,RJ,28625-060,BR,-42.53456,-22.28609
Rua Santo Inácio,Nova Friburgo,RJ,28625-720,BR,-42.53475,-22.27194
Rua Heitor Capozzi,Nova Friburgo,RJ,28635-365,BR,-42.5168,-22.23487
Rodovia Amaral Peixoto,Rio das Ostras,RJ,28893-630,BR,-41.87534,-22.4458
Rua Maceió,Rio das Ostras,RJ,28895-526,BR,-41.9213,-22.50562
Alameda Rio Arkansas,Rio das Ostras,RJ,28898-446,BR,-41.95172,-22.51055
Rua Quinze,Cabo Frio,RJ,28909-750,BR,-42.00538,-22.60696
Rua José Rodrigues de Oliveira,Vitória,ES,29027-105,BR,-40.35075,-20.31614
Beco Daniel Gonçalves da Silva,Vitória,ES,29032-373,BR,-40.32697,-20.27182
Rua Tancredo Neves,Vitória,ES,29032-567,BR,-40.31829,-20.27056
Rua Projetada,Vila Velha,ES,29103-482,BR,-40.29646,-20.34402
Rua José Carlos Fonseca,Cariacica,ES,29141-640,BR,-40.37008,-20.35318
Rua Renato Petema,Nova Iguaçu,RJ,26272-380,BR,-43.5038,-22.76439
Rua Pacaembu,Nova Iguaçu,RJ,26285-580,BR,-43.52129,-22.74896
Rua Tinguá,Nova Iguaçu,RJ,26294-336,BR,-43.54986,-22.79301
Rua Itajubá,Queimados,RJ,26310-380,BR,-43.56582,-22.71558
Rua Três,Queimados,RJ,26315-180,BR,-43.56097,-22.72593
Rua Reverendo Abdias Ferreira Nobre,Barra do Piraí,RJ,27115-170,BR,-43.79974,-22.44569
Rua Um,Volta Redonda,RJ,27220-180,BR,-44.12788,-22.48472
Rua Dezessete,Resende,RJ,27524-742,BR,-44.49765,-22.48847
Rua Doutor Álvaro de Lacerda,Campos dos Goytacazes,RJ,28013-440,BR,-41.35051,-21.74217
Rua Nazário Pereira Gomes,Campos dos Goytacazes,RJ,28060-204,BR,-41.33036,-21.74183
Rua Rio Grande do Norte,Linhares,ES,29901-020,BR,-40.04679,-19.40592
Rua José Carlos Langa,Linhares,ES,29906-440,BR,-40.05356,-19.34786
Avenida Jairo Mendonça Bahia,São Mateus,ES,29938-220,BR,-39.85978,-18.72237
Avenida Cruzeiro do Norte,São Mateus,ES,29942-210,BR,-39.88374,-18.7204
Praça Antônio Edilio Duarte,Belo Horizonte,MG,30494-320,BR,-43.96666,-19.8254
Rua Cid Rebelo Horta,Belo Horizonte,MG,30530-245,BR,-43.99416,-19.93176
Rua Quatorze,Cariacica,ES,29157-412,BR,-40.38906,-20.26227
Quadra 6 Conjunto 22,Brasília,DF,71256-415,BR,-47.847167999999996,-15.791694
Quadra 3,Brasília,DF,71261-200,BR,-47.92248,-15.84658
Quadra 6 Conjunto D,Brasília,DF,71570-604,BR,-47.92248,-15.84658
Quadra 1 Conjunto 2 Lote 1 Bloco H,Brasília,DF,71587-066,BR,-47.84971,-15.79372
Quadra SHIS QI 15 Chácaras 33 a 40,Brasília,DF,71600-770,BR,-47.83195,-15.82026
Quadra SHIS QI 11 Bloco N,Brasília,DF,71625-630,BR,-47.83195,-15.82026
Rua das Bracatingas,Sinop,MT,78552-451,BR,-55.50126,-11.82561
Rua Rio Capibaribe,Maringá,PR,87043-192,BR,-51.89564,-23.39752
Avenida Tupi,Pato Branco,PR,85501-065,BR,-52.67465,-26.21319
Rua Verônica Opolski,Francisco Beltrão,PR,85606-170,BR,-53.05368,-26.03484
Rua Joanes Kepler,Cascavel,PR,85814-370,BR,-53.43156,-24.92071
Rua La Salle,Cascavel,PR,85816-070,BR,-53.43086,-24.94255
Rua Pontal do Sul,Cascavel,PR,85817-040,BR,-53.4163,-24.94007
Quadra SHIS QL 14 Conjunto 9,Brasília,DF,71640-095,BR,-47.83195,-15.82026
Quadra 301 Conjunto 1,Brasília,DF,71692-701,BR,-47.77637,-15.90774
Quadra QR A,Brasília,DF,71727-010,BR,-47.93057,-15.76519
Rua José Barriga,Rondonópolis,MT,78714-306,BR,-54.63326,-16.4317
Rua Pompilio José Gonçalves,Rondonópolis,MT,78715-326,BR,-54.62234,-16.46587
Rua Francisco Lopes dos Santos,Rondonópolis,MT,78715-472,BR,-54.64573,-16.43487
Avenida João XXIII,Rondonópolis,MT,78720-810,BR,-54.62343,-16.43959
Rua José Maria de Souza Franco,Rondonópolis,MT,78725-645,BR,-54.61127,-16.44241
Rua Pedro Ferrer,Rondonópolis,MT,78740-028,BR,-54.61393,-16.47936
Rua Titanita,Maringá,PR,87083-375,BR,-51.95006,-23.37702
Rua Turquia,Cianorte,PR,87202-392,BR,-52.63992,-23.64481
Quadra QS 14 Conjunto 3,Brasília,DF,71884-516,BR,-48.04098,-15.93144
Quadra QS 7 Rua 400,Brasília,DF,71968-720,BR,-47.93057,-15.76519
Quadra QS 8 Conjunto 610B,Brasília,DF,71973-365,BR,-47.93057,-15.76519
Rua do Sossego,Campo Grande,MS,79015-460,BR,-54.58147,-20.40101
Rua Tuerê,Campo Grande,MS,79018-022,BR,-54.55198,-20.38376
Rua Celso Lacerda Azevedo,Campo Grande,MS,79070-224,BR,-54.61538,-20.52153
Rua Araruna,Campo Mourão,PR,87302-296,BR,-52.37532,-24.05006
Rua Victor Dorta de Oliveira,Umuarama,PR,87504-708,BR,-53.27465,-23.75203
Rua Antonio Fernandes de Lima,Umuarama,PR,87507-136,BR,-53.33768,-23.78692
Rua Maria Sebastiana Floriano,Umuarama,PR,87507-602,BR,-53.30404,-23.78991
Rodovia DF-425,Brasília,DF,73092-911,BR,-47.92909,-15.77829
Quadra 15 Módulo 8,Brasília,DF,73401-821,BR,-47.653325172413794,-15.6306
Quadra 6 MR 4,Planaltina,GO,73752-093,BR,-47.60905,-15.43508
Quadra QN 320 Conjunto 4,Brasília,DF,72310-004,BR,-47.91473,-15.74734
Rua Carurú,Campo Grande,MS,79072-265,BR,-54.68176,-20.49492
Rua Felipe Portinho,Campo Grande,MS,79075-171,BR,-54.71232,-20.45832
Travessa Laucídio Pereira de Souza,Campo Grande,MS,79084-355,BR,-54.64634,-20.53438
Travessa Jade,Campo Grande,MS,79102-090,BR,-54.66724,-20.45285
Rua Professor Milton Roque Ramos Krieger,Florianópolis,SC,88036-080,BR,-48.52509,-27.58375
Quadra QR 41,Planaltina,GO,73754-041,BR,-47.61088,-15.43246
Rua F46,Goiânia,GO,74350-390,BR,-49.26062,-16.66125
Rua RC 16 A,Goiânia,GO,74356-667,BR,-49.22846,-16.61091
Quadra QN 406,Brasília,DF,72318-560,BR,-47.91473,-15.74734
Quadra QR 401 Conjunto 10,Brasília,DF,72319-010,BR,-47.92695,-15.76124
Quadra QS 617 Conjunto P Comércio,Brasília,DF,72333-516,BR,-47.93057,-15.76519
Quadra 10 Conjunto C,Brasília,DF,72415-503,BR,-48.06862283596312,-16.02669490149723
Quadra QR 302 Conjunto A,Brasília,DF,72502-501,BR,-47.92839,-15.7627
Quadra QR 207 Conjunto C,Brasília,DF,72507-403,BR,-47.928545,-15.761375000000001
Quadra CL 408 Bloco F,Brasília,DF,72508-246,BR,-47.87734,-15.78416
Rua Presidente Rodrigues Alves,Campo Grande,MS,79112-350,BR,-54.66591,-20.43443
Rua Colorado,Campo Grande,MS,79112-480,BR,-54.66101,-20.43533
Avenida Tamandaré,Campo Grande,MS,79117-010,BR,-54.62833,-20.43646
Rua Barão de Melgaço,Corumbá,MS,79310-143,BR,-57.63586,-19.00991
Rua Antônio Willemann,São José,SC,88106-143,BR,-48.6239,-27.58219
Servidão Arnoldo Vieira,Palhoça,SC,88130-422,BR,-48.64847,-27.63742
Rua Madri 19,Goiânia,GO,74369-110,BR,-49.31086,-16.73634
Rua MDV 9,Goiânia,GO,74371-420,BR,-49.342298,-16.731872
Rua Almeida Lara,Goiânia,GO,74450-380,BR,-49.31871,-16.65623
Rua Itororó,Goiânia,GO,74455-015,BR,-49.324,-16.6727
Rua Abcília Francisca Caetano,Goiânia,GO,74461-220,BR,-49.34695,-16.65806
Rua Roosevelt Roque Giarola,São João Del Rei,MG,36302-678,BR,-44.21279,-21.10209
Travessa Alzira Diogo,Cataguases,MG,36773-572,BR,-42.70649,-21.38439
Avenida Salum Assad David,Varginha,MG,37062-650,BR,-45.44701,-21.5791
Avenida Engenheiro Pedro Fonseca Paiva,Itajubá,MG,37504-015,BR,-45.46248,-22.42922
Travessa Santo Antônio,Salvador,BA,40323-380,BR,-38.45709,-12.97331
Rua D,Salvador,BA,40330-430,BR,-38.4148,-12.88313
Rua Senhor do Bonfim,Salvador,BA,40352-132,BR,-38.47969,-12.93866
Travessa Henrique Marques,Salvador,BA,40352-463,BR,-38.4762,-12.93877
Travessa Cunha,Salvador,BA,40355-400,BR,-38.48101,-12.94478
Avenida Edgar,Salvador,BA,40393-890,BR,-38.43794,-12.88002
Rua Paraná,Salvador,BA,41210-010,BR,-38.44961,-12.94686
Rua São José do Calabetão,Salvador,BA,41227-168,BR,-38.46571,-12.9323
Rua São Francisco Xavier,Salvador,BA,41230-140,BR,-38.46111,-12.91645
Travessa Valdo,Salvador,BA,41270-411,BR,-38.47371,-13.00397
4ª Travessa da Matriz,Salvador,BA,41301-528,BR,-38.43864,-12.87847
2ª Travessa Jatobá,Salvador,BA,41510-199,BR,-38.42946,-12.88321
Alameda da Suiça,Salvador,BA,41510-358,BR,-38.40854,-12.88081
Rua Marcos Pinheiro,Salvador,BA,41650-472,BR,-38.37875,-12.9369
2ª Travessa Cinco de Novembro,Salvador,BA,41905-145,BR,-38.47877,-13.01091
1ª Travessa da Fonte,Salvador,BA,42505-025,BR,-38.62161,-12.77184
Rua Desembargador Teixeira de Freitas,Candeias,BA,43810-235,BR,-38.54558,-12.66369
Rua Trinta e Quatro,Vitória da Conquista,BA,45037-770,BR,-40.82689,-14.91124
Rua Ridufino Rodrigues de Oliveira,Montes Claros,MG,39402-738,BR,-43.87207,-16.73667
Rua Pio XII,Teófilo Otoni,MG,39803-261,BR,-41.50564,-17.88384
Rua Zuleika Moreira Barbosa,Pará de Minas,MG,35661-080,BR,-44.57359,-19.86734
Rua Cláudia R. França Alves,Itaúna,MG,35680-548,BR,-44.57674,-20.07269
Rua Rolândia,Sete Lagoas,MG,35701-316,BR,-44.22832,-19.43261
Rua Canaã,Itabira,MG,35900-478,BR,-43.22315,-19.64901
Rua Oitenta e Seis,Contagem,MG,32070-020,BR,-44.11644,-19.90941
Rua Vinte e Seis,Contagem,MG,32143-670,BR,-44.03704,-19.91803
Rua Coronel Valdivino Costa,Contagem,MG,32186-420,BR,-44.01307,-19.85163
Rua Palermo,Contagem,MG,32340-240,BR,-44.05327,-19.94437
Rua João Inácio da Silva,Betim,MG,32604-462,BR,-44.19666,-19.95227
Rua José Afonso Pinheiro,Juiz de Fora,MG,36031-040,BR,-43.34918,-21.78896
Alameda Doutor Roberto Repeto,Juiz de Fora,MG,36072-140,BR,-43.43997,-21.7157
Rua Feliciano Campagnacci,Juiz de Fora,MG,36088-512,BR,-43.44457,-21.70569
Travessa Arvoredo,São João Del Rei,MG,36301-148,BR,-44.25409,-21.12203
Rua Dozolina Botta,Uberaba,MG,38038-316,BR,-47.91599,-19.72264
Rua Barbosa Cauhi,Uberaba,MG,38082-159,BR,-47.89569,-19.75735
Rua Gassan André Andraus,Ituiutaba,MG,38305-529,BR,-49.46196,-19.0034
Rua Padre João,Araguari,MG,38440-145,BR,-48.18171,-18.63949
Praça Humberto Eustáquio Porto,Patos de Minas,MG,38703-534,BR,-46.51569,-18.59092
Praça Clarindo Teixeira Pinto,Patos de Minas,MG,38705-377,BR,-46.51756,-18.61355
Rua Sebastião Diniz,Montes Claros,MG,39400-368,BR,-43.85683,-16.72709
Praça Doutor Carlos Versiani,Montes Claros,MG,39400-612,BR,-43.86522,-16.72308
Avenida Geraldo Athayde,Montes Claros,MG,39400-622,BR,-43.8596,-16.71823
Rua Tupis,Montes Claros,MG,39401-068,BR,-43.87574,-16.72544
Rua 1,Brasília,DF,71070-501,BR,-48.02791,-15.75247
Quadra 205 Conjunto 1,Brasília,DF,72610-501,BR,-48.066,-15.90599
Condomínio Residencial Buritis Quadra A,Brasília,DF,72669-301,BR,-47.84932,-15.79664
Rua Vasco Venâncio Soares,Dourados,MS,79814-111,BR,-54.81093,-22.22911
Rua Joaquim Luiz Azambuja,Dourados,MS,79822-490,BR,-54.85192,-22.21904
Rua Thealmo João Ioris,Dourados,MS,79823-503,BR,-54.84952,-22.21564
Rua Antônio Spoladore,Dourados,MS,79823-732,BR,-54.83741,-22.21738
Rua Carlos Gonçalves Dutra,Itajaí,SC,88302-370,BR,-48.65616,-26.91983
Travessa Nazário Tomé Linhares,Itajaí,SC,88304-108,BR,-48.68219,-26.90977
Rua das Buganvilias,Itajaí,SC,88308-195,BR,-48.69478,-26.91904
Rua Biguaçu,Itajaí,SC,88309-470,BR,-48.69802,-26.90505
Rua Leonesa Pereira Motta,Balneário Camboriú,SC,88336-115,BR,-48.6048,-27.03074
Rua BF34,Goiânia,GO,74477-158,BR,-49.33896,-16.59097
Rua Cristóvão Colombo,Goiânia,GO,74553-490,BR,-49.3587,-16.68236
Rua F2,Goiânia,GO,74583-510,BR,-49.364,-16.60523
Quadra 726,Luziânia,GO,72856-726,BR,-47.93262,-16.24311
Rua 72,Valparaíso de Goiás,GO,72872-368,BR,-48.02068,-16.08698
Rua Doutor Reynaldo Machado,Curitiba,PR,80215-010,BR,-49.25797,-25.44579
Avenida Vicente Machado,Curitiba,PR,80440-020,BR,-49.29798,-25.44157
Rua Doutor Lauro Wolff Valente,Curitiba,PR,81070-010,BR,-49.29702,-25.47456
Rua São Leopoldo Mandic,Curitiba,PR,81170-060,BR,-49.32127,-25.51009
Rua Professor Pedro Viriato Parigot de Souza,Curitiba,PR,81200-452,BR,-49.22275,-25.43202
Rua Sebastião Venâncio Foster,Brusque,SC,88352-520,BR,-48.89288,-27.08085
Rua Encontrista Artur Alfredo Galvez,Navegantes,SC,88372-818,BR,-48.63721,-26.83702
Rua Jairo Luiz Ramos,Lages,SC,88508-604,BR,-50.31099,-27.80184
Rua Bernardo Guimarães,Lages,SC,88511-087,BR,-50.30952,-27.82516
Travessa 2,Goiânia,GO,74633-375,BR,-49.34584,-16.68887
Rua 9,Anápolis,GO,75075-360,BR,-48.95295,-16.32866
Rua Dona Carime,Anápolis,GO,75084-140,BR,-48.93468,-16.31375
Avenida Pinheiros,Anápolis,GO,75090-130,BR,-48.91142,-16.31143
Praça Rudolfo Miguel Hansel,Curitiba,PR,81770-772,BR,-49.27654,-25.43998
Rua Domingos Strapasson,Curitiba,PR,82320-040,BR,-49.33411,-25.4064
Rua Campos Salles,Lages,SC,88520-405,BR,-50.30204,-27.79748
Rua Doze de Outubro,Tubarão,SC,88706-248,BR,-48.99307,-28.49305
Rua Seriguela,Fazenda Rio Grande,PR,83820-792,BR,-49.28696,-25.63894
Rua Boleslau Brigola,Ponta Grossa,PR,84022-240,BR,-50.10886,-25.06612
Rua Gonçalves Dias,Chapecó,SC,89805-053,BR,-52.62162,-27.08638
Rua Humaitá,Chapecó,SC,89805-295,BR,-52.63003,-27.06265
Rua José Lourenço,Manaus,AM,69099-273,BR,-59.94407,-3.01314
Rua 7 de Setembro,Parintins,AM,69151-464,BR,-56.73404,-2.62717
Rua CC-21,Boa Vista,RR,69318-100,BR,-60.77674,2.79593
Quadra Orla 14 Alameda 3,Palmas,TO,77026-020,BR,-48.15256,-10.31632
Rua P,Gurupi,TO,77413-400,BR,-49.07781,-11.7239
Rua M,Gurupi,TO,77413-810,BR,-49.08311,-11.7115
Rua Jatuarana,Ariquemes,RO,76870-232,BR,-63.05371,-9.9078
Rua Ademar Bontorin,Colombo,PR,83403-250,BR,-49.21238,-25.35132
Rua da Jaboticabeira,Colombo,PR,83407-640,BR,-49.17135,-25.33961
Rua João Gaiovski,Colombo,PR,83413-670,BR,-49.1685,-25.38539
Beco Graciliano Ramos,Manaus,AM,69036-162,BR,-60.0593,-3.10229
Alameda Marechal Rondon,Jataí,GO,75804-333,BR,-51.7447,-17.87832
Rua 12A,Rio Verde,GO,75900-067,BR,-50.49075,-17.97036
Rua 25,Rio Verde,GO,75906-488,BR,-50.922847154936,-17.797298140847303
,Heitoraí,GO,76670-000,BR,-49.82385,-15.72418
Rua Santa Sofia,Blumenau,SC,89053-190,BR,-49.073,-26.88364
Rua Visconde da Pedra Branca,Manaus,AM,69058-660,BR,-60.00291,-3.06185
Rua Doutor José Pimentel,Criciúma,SC,88811-090,BR,-49.36784,-28.67106
Rua das Laranjeiras,Criciúma,SC,88811-430,BR,-49.34015,-28.66034
Avenida Segunda Radial,Goiânia,GO,74850-040,BR,-49.24216,-16.71497
Rua Manoel Barbosa Damasceno,Goiânia,GO,74870-251,BR,-49.25645,-16.67931
Rua Skyny,Aparecida de Goiânia,GO,74923-005,BR,-49.25152,-16.82261
Rua Paquetá,Aparecida de Goiânia,GO,74942-050,BR,-49.3119,-16.78091
Rua Cristal,Aparecida de Goiânia,GO,74959-228,BR,-49.30216,-16.81676
Rua VP 5D,Anápolis,GO,75132-120,BR,-48.94729,-16.40454
Rua Carlota Silva Rossi,Itumbiara,GO,75522-190,BR,-49.20146,-18.41159
Rua 21,Itumbiara,GO,75526-180,BR,-49.2076,-18.40338
Rua 604,Catalão,GO,75712-360,BR,-47.9423,-18.17382
Rua Waldomiro Dombeck,Curitiba,PR,82540-095,BR,-49.2429,-25.39586
Rua Benedito França,Curitiba,PR,82810-540,BR,-49.20656,-25.43859
Travessa Anilton Vitor Anastácio,Araranguá,SC,88902-548,BR,-49.54423,-28.99483
Rua Aloísio Wippel,Blumenau,SC,89040-280,BR,-49.12309,-26.93009
Rua São Francisco de Canindé,Manaus,AM,69015-310,BR,-60.02667,-3.00681
Rua Celso Elias Barause,Campo Largo,PR,83602-036,BR,-49.52738,-25.48564
Rua Maria Joezina Ferreira,Campo Largo,PR,83604-562,BR,-49.5752,-25.47383
Rua Joseph August Henning,Jaraguá do Sul,SC,89253-427,BR,-49.1062,-26.49756
Rua Augusto Wunderwald,São Bento do Sul,SC,89282-610,BR,-49.32764,-26.21371
Rua Edson Noriller,São Bento do Sul,SC,89287-165,BR,-49.40058,-26.25354
Travessa Cupiúba,Manaus,AM,69088-736,BR,-59.95443,-3.10992
Rua Ximana,Manaus,AM,69090-329,BR,-59.98681,-3.0389
Rua Jardinópolis,Manaus,AM,69098-114,BR,-60.00444,-3.10027
Rua Nova Brasilândia,Ariquemes,RO,76875-774,BR,-63.01718,-9.91496
Rua Juriti,Ariquemes,RO,76876-224,BR,-63.02675,-9.92016
Rua Treze de Setembro,Ji-Paraná,RO,76900-781,BR,-61.97108,-10.87086
Rua João Muryn,Araucária,PR,83707-040,BR,-49.36179,-25.54169
Rua Gonçalves Dias,Chapecó,SC,89805-053,BR,-52.62373,-27.08686
Rua Recanto Som do Mar,Caraguatatuba,SP,11676-248,BR,-45.40746,-23.6227
Rua Pegasso,Caraguatatuba,SP,11676-535,BR,-45.35229,-23.61078
Avenida Presidente Castelo Branco,Praia Grande,SP,11700-805,BR,-46.5047,-24.04191
Rua Estância Velha,Itaquaquecetuba,SP,08590-035,BR,-46.27614,-23.44834
Rua Hélio de Souza Melo,Suzano,SP,08616-876,BR,-46.2937,-23.5663
Rua José de Oliveira,São Paulo,SP,04930-170,BR,-46.75393,-23.6798
Rua Cerro Corá,São Paulo,SP,05061-906,BR,-46.71326,-23.53527
Avenida Raimundo Pereira de Magalhães,São Paulo,SP,05145-901,BR,-46.72233,-23.4468
Avenida Chica Luísa,São Paulo,SP,05183-270,BR,-46.75538,-23.44932
Rua Carlos Ebolu,São Paulo,SP,05183-290,BR,-46.75124,-23.45293
Rua Elis Regina,São Paulo,SP,05273-010,BR,-46.80444,-23.43784
Rua Carlos Alberto Soares de Freitas,São Paulo,SP,05328-105,BR,-46.65993,-23.4843
Rua Florêncio de Abreu,São Paulo,SP,01029-901,BR,-46.63307,-23.53594
Praça Doutor João Mendes,São Paulo,SP,01501-001,BR,-46.63323,-23.55281
Rua Heitor Peixoto,São Paulo,SP,01543-000,BR,-46.626,-23.57472
Rua Carlos Alberto Luiz,São Paulo,SP,02207-080,BR,-46.58714,-23.48694
Travessa Ana Ferrara,São Paulo,SP,02209-150,BR,-46.58202,-23.48609
Travessa Xavier,São Paulo,SP,08021-227,BR,-46.43595,-23.50248
Avenida Coca,São Paulo,SP,08030-000,BR,-46.42803,-23.50346
Travessa Anivaldo Lopes,São Paulo,SP,08080-096,BR,-46.77447,-23.57858
Rua Paulo Setúbal,São Bernardo do Campo,SP,09732-220,BR,-46.56445,-23.6821
Rua Sapucaia,São Bernardo do Campo,SP,09765-620,BR,-46.52567,-23.71147
Rua Nobre,São Bernardo do Campo,SP,09772-000,BR,-46.53059,-23.7089
Passagem Mãe Rainha,Diadema,SP,09990-104,BR,-46.62583,-23.6889
Rua Ribeirão Preto,São Vicente,SP,11347-710,BR,-46.4536,-23.9784
Avenida Galeão Coutinho,São Vicente,SP,11365-000,BR,-46.39303,-23.94141
Avenida Romão Fidalgo Salgado Neto,Guarujá,SP,11445-450,BR,-46.1876,-23.94812
Rua Jaraguá,Guarujá,SP,11461-540,BR,-46.23041,-23.97829
Praça Antônio Alves Vilares da Silva,São Paulo,SP,03906-080,BR,-46.50952,-23.58179
Avenida Ireré,São Paulo,SP,04064-004,BR,-46.6461,-23.6268
Rua Capão da Serra,São Paulo,SP,04289-090,BR,-46.61546,-23.6088
Avenida Santa Catarina,São Paulo,SP,04378-000,BR,-46.66462,-23.64508
Avenida Professor Francisco Morato,São Paulo,SP,05520-300,BR,-46.74708,-23.60576
Rua Antônio Cardoso Pereira,São Paulo,SP,05546-140,BR,-46.77037,-23.58678
Rua Iquiririm,São Paulo,SP,05586-000,BR,-46.72497,-23.57235
Travessa Oswald de Andrade,Osasco,SP,06070-340,BR,-46.77956,-23.54534
Rua Bom Conselho,Osasco,SP,06124-320,BR,-46.7951,-23.54423
Rua Caibi,Carapicuíba,SP,06355-010,BR,-46.84733,-23.56465
Rua Serra dos Órgãos,Carapicuíba,SP,06360-280,BR,-46.84187,-23.55339
Rua Celso Soncini,Carapicuíba,SP,06361-170,BR,-46.84235,-23.56043
Rua Jacareí,Barueri,SP,06447-070,BR,-46.87883,-23.53842
Alameda São Carlos,Santana de Parnaíba,SP,06542-040,BR,-46.8724,-23.47635
Rua Francisco Tomaz da Silva,Jandira,SP,06624-300,BR,-46.91027,-23.54753
Rua Águas Verdes,Cotia,SP,06706-205,BR,-46.86508,-23.57783
Praça Josefina Galiano Nobre,Caraguatatuba,SP,11667-370,BR,-45.40746,-23.6227
Rua Antônia Veiga Ruiz,Mogi das Cruzes,SP,08773-060,BR,-46.19903,-23.51709
Rua Sebastião Vasconcelos Filho,Mogi das Cruzes,SP,08775-395,BR,-46.18415,-23.50089
Rua Lilás,Santo André,SP,09160-354,BR,-46.46465,-23.76845
Avenida dos Estados,Santo André,SP,09210-580,BR,-46.5363,-23.63433
Rua Jandaia,Santo André,SP,09240-700,BR,-46.52247,-23.62949
Travessa Itaqui,Santo André,SP,09272-434,BR,-46.49266,-23.64932
Rua Letícia,Ribeirão Pires,SP,09445-200,BR,-46.36076,-23.71248
Viela Caxinguelê,Embu das Artes,SP,06807-817,BR,-46.80358,-23.6632
Rua Soldado Antônio Mathias Camargo,Guarulhos,SP,07031-280,BR,-46.54964,-23.5017
Rua Peri Mirim,Guarulhos,SP,07053-010,BR,-46.55675,-23.47511
Rua Treze,Guarulhos,SP,07075-430,BR,-46.41142,-23.42798
Praça Rubil de Almeida Barbosa,Guarulhos,SP,07130-450,BR,-46.50768,-23.44353
Viela Cerro Corá,Guarulhos,SP,07152-211,BR,-46.46937,-23.40403
Rua Resende Costa,Guarulhos,SP,07176-458,BR,-46.3971,-23.40551
Rua Laércio Nazareno,Guarulhos,SP,07230-620,BR,-46.50768,-23.44353
Rua Zulu,Guarulhos,SP,07272-050,BR,-46.42362,-23.46744
Avenida das Palmeiras,Arujá,SP,07434-535,BR,-46.32538,-23.41792
Rua Santo Antonio,Caieiras,SP,07700-050,BR,-46.73918,-23.36175
Rua Antonio Francisco Leme,Caieiras,SP,07713-305,BR,-46.74535,-23.34948
Rua Mário Andreatini,Cotia,SP,06721-507,BR,-46.93191,-23.62438
Rua Casa de Emaús,São Paulo,SP,04455-410,BR,-46.67504,-23.68366
Rua Antônio Masi,São Paulo,SP,04671-330,BR,-46.68987,-23.66178
Avenida Engenheiro Eusébio Stevaux,São Paulo,SP,04696-000,BR,-46.69155,-23.68138
Rua Cancioneiro Popular,São Paulo,SP,04710-000,BR,-46.69471,-23.63001
Rua Acari,São Paulo,SP,04730-080,BR,-46.722,-23.64069
Avenida das Nações Unidas,São Paulo,SP,04795-913,BR,-46.70225,-23.62284
Rua Eduardo Ramos,São Paulo,SP,04822-270,BR,-46.69349,-23.7354
Rua Rogério Nazaro da Silva,Presidente Prudente,SP,19140-025,BR,-51.29929,-21.80277
Rua Amélia de Jesus Madeira,Ourinhos,SP,19902-444,BR,-49.86029,-22.99672
Travessa Sebastiana,Rio de Janeiro,RJ,20943-530,BR,-43.68442,-22.97939
Rua Godofredo Vidal,Rio de Janeiro,RJ,21535-230,BR,-43.33559,-22.81319
Rua Shecknah,Rio de Janeiro,RJ,21725-252,BR,-43.35286,-22.89832
Rua Georgias,Rio de Janeiro,RJ,21770-220,BR,-43.43648,-22.88638
Rua Lauro Thibes Cordeiro,Itapetininga,SP,18214-719,BR,-48.00214,-23.58008
Rua Eliza Pinto da Silveira,Tatuí,SP,18274-660,BR,-47.85024,-23.39845
Rua das Violetas,Capão Bonito,SP,18304-763,BR,-48.33957,-24.00427
Praça do Correio,Itapeva,SP,18400-970,BR,-48.62877,-24.06584
Rua Severino Alves Rodrigues de Oliveira,Itapeva,SP,18404-510,BR,-48.85432,-24.00603
Rua Luiz Vizotto,Botucatu,SP,18601-696,BR,-48.43458,-22.90351
Rua Icatuaçu,São Paulo,SP,02757-100,BR,-46.68573,-23.48518
Praça Joaquim Vagliengo,São Paulo,SP,02831-040,BR,-46.62653,-23.47666
Rua Cristóvão Santiago,São Paulo,SP,02871-040,BR,-46.67374,-23.46189
Rua Nova Era,São Paulo,SP,02968-010,BR,-46.71033,-23.48511
Rua Três Lagoas,São Paulo,SP,03254-210,BR,-46.53232,-23.61334
Praça Lions Clube de Vila Matilde,São Paulo,SP,03541-005,BR,-46.39644,-23.49824
Rua Macaóca,São Paulo,SP,03572-170,BR,-46.49923,-23.57747
Rua Luciano Antônio Rodrigues,São Paulo,SP,03712-040,BR,-46.53124,-23.50683
Rua Antonio Puga Archilla,Atibaia,SP,12944-310,BR,-46.5869,-23.13141
Rua Carlos Fiolo,Campinas,SP,13058-149,BR,-47.19785,-22.9685
Rua Terceiro-Sargento-Polícia Militar Alexandre de Souza Roberto,São José dos Campos,SP,12226-370,BR,-45.8872,-23.17925
Rua Arnaldo Pinto Pereira,São José dos Campos,SP,12244-310,BR,-45.9371,-23.20022
Rua Walter Durst,Jacareí,SP,12301-611,BR,-45.94286,-23.26715
Rua da Penha,Jacareí,SP,12307-700,BR,-45.95556,-23.30365
Rua Doutor Antonio Atallah,Ribeirão Preto,SP,14079-624,BR,-47.7583,-21.14674
Rua Mozart Gomes Martins,Ribeirão Preto,SP,14098-834,BR,-47.78081,-21.23758
Rua Guerino Molesin,Sertãozinho,SP,14164-110,BR,-47.99626,-21.11983
Rua Rodrigo da Silva Teodoro,Franca,SP,14406-804,BR,-47.45739,-20.53726
Rua Daniel Martins Tristão,Franca,SP,14406-814,BR,-47.45699,-20.53756
Rua Jair dos Santos,Guaratinguetá,SP,12518-290,BR,-45.1784,-22.78552
Rua Eunice Bastos Galvão,Lorena,SP,12609-110,BR,-45.11925,-22.7527
Rua Voluntário Juvenal Vasconcelos,Bragança Paulista,SP,12908-411,BR,-46.54489,-22.93625
Rua Justina Chiovatto,Bragança Paulista,SP,12916-180,BR,-46.54086,-22.97411
Rua Freire de Andrade,Santa Bárbara D'Oeste,SP,13458-046,BR,-47.41144,-22.76984
Rua João Luiz Erbolato,Santa Bárbara D'Oeste,SP,13458-188,BR,-47.41974,-22.77582
Rua Argentina,Americana,SP,13465-690,BR,-47.33736,-22.74362
Rua São Thiago,Americana,SP,13469-425,BR,-47.31384,-22.71942
Rua Leopoldo Froes,Americana,SP,13474-651,BR,-47.2909,-22.70155
Rua Adinir Irineu de Gaspari,Limeira,SP,13481-104,BR,-47.40484,-22.60074
Rua Atirador Paulo Roberto Vialle,Limeira,SP,13484-312,BR,-47.41121,-22.55977
Rua 5 RV,Rio Claro,SP,13506-136,BR,-47.56281,-22.41175
Via de Acesso H,São Carlos,SP,13565-297,BR,-47.90037,-21.97208
Rua Sylvio Moreira,Campinas,SP,13086-708,BR,-47.04538,-22.78456
Rua Alcides Fernandes Carvalho,Campinas,SP,13087-551,BR,-47.14708,-22.8878
Rua Delacir Toffoli,Campinas,SP,13098-765,BR,-46.99626,-22.78669
Rua Angelina Vicentim Beraldo,Paulínia,SP,13148-066,BR,-47.13638,-22.75969
Rua Izaltine Orlandine Terra,Sumaré,SP,13177-452,BR,-47.23169,-22.79144
Rua Adelino Crispiliano,Hortolândia,SP,13184-695,BR,-46.90777,-23.17099
Rua João Buscato,Jundiaí,SP,13205-180,BR,-46.8567,-23.25314
Rua Benedito Rigolo,Jundiaí,SP,13218-033,BR,-46.9886,-23.18391
Avenida Yolanda Ferreira Breda,Jundiaí,SP,13218-300,BR,-46.85713,-23.18681
Rua Borda da Mata,Várzea Paulista,SP,13222-281,BR,-46.8192,-23.1914
Avenida Alfried Krupp,Campo Limpo Paulista,SP,13231-900,BR,-46.78404,-23.20658
Rua Pintassilgo,Campo Limpo Paulista,SP,13236-221,BR,-46.79786,-23.20985
Travessa Luiz Rossi,Itatiba,SP,13253-413,BR,-46.82164,-23.00646
Rua Luiz de Oliveira Martins Alves Júnior,Itu,SP,13310-510,BR,-47.35147,-23.40378
Rua José Antônio Sbrissa,Itu,SP,13312-860,BR,-47.31142,-23.28245
Alameda dos Uirapurus,Indaiatuba,SP,13341-210,BR,-47.16592,-23.10011
Rua Oscar Ribeira,Indaiatuba,SP,13348-410,BR,-47.23702,-23.12152
Rua Carlos Raya,Piracicaba,SP,13402-251,BR,-47.66997,-22.74523
Rua Maria Cecília Machado Bonachella,Piracicaba,SP,13402-376,BR,-47.67378,-22.73984
Rua Elias Cândido de Souza,Franca,SP,14409-175,BR,-47.39644,-20.51014
Rua João Ciomino,Araraquara,SP,14805-356,BR,-48.18372,-21.71945
Rua Nicolla Fiorentino,São Carlos,SP,13565-575,BR,-47.88345,-21.95766
Rua Oswaldo Denari,São Carlos,SP,13568-600,BR,-47.8574,-22.00316
Rua Emerson Radamés Gatto,São Carlos,SP,13568-640,BR,-47.84764,-22.01687
Rua José Zanetti,São Carlos,SP,13573-400,BR,-47.87992,-22.06686
Rua Adolfo Matthiensen,Araras,SP,13601-356,BR,-47.38751,-22.37622
Rua Heloísa de Figueiredo Ferraz,Mococa,SP,13737-120,BR,-45.30102,-23.57088
Rua São José dos Pinhais,Mogi Guaçu,SP,13846-124,BR,-46.95567,-22.34388
Rua Orlando Girard Franco,Mogi Guaçu,SP,13848-226,BR,-46.92815,-22.33141
Rua Doutor Virgílio Paiva Júnior,Amparo,SP,13900-271,BR,-46.74994,-22.69918
Rua Maria Castelucci,Amparo,SP,13901-264,BR,-46.77799,-22.69789
Rua O,Ribeirão Preto,SP,14021-729,BR,-47.7672,-21.14485
Rua Vitória,Jales,SP,15707-702,BR,-50.55908,-20.24439
Rua das Tulipas,Catanduva,SP,15804-380,BR,-48.95385,-21.11178
Via Narciso Baldan,Matão,SP,15990-460,BR,-48.33761,-21.60949
Rua José Guimarães Marques de Oliveira,Araçatuba,SP,16018-080,BR,-50.43909,-21.22484
Rua Imaculado Coração de Maria,Araçatuba,SP,16050-683,BR,-50.44896,-21.1939
Rua São Luiz,Araçatuba,SP,16050-685,BR,-50.47377,-21.17535
Praça Domingos Lot,Birigui,SP,16203-022,BR,-50.33493,-21.29445
Rua Augusto Silva,Birigui,SP,16204-009,BR,-50.35124,-21.30065
Rua Benjamin Constant,Andradina,SP,16900-447,BR,-51.3762,-20.9078
Rua José Bombini,Bauru,SP,17022-124,BR,-49.06458,-22.27553
Rua Agostinho Fornetti,Bauru,SP,17063-430,BR,-49.09143,-22.30971
Rua Alfredo Leitão,Jaú,SP,17205-080,BR,-48.56829,-22.29113
Rua Olívio Crozera,Jaú,SP,17208-433,BR,-48.55996,-22.27113
Rua Sérgio Faria,Marília,SP,17512-450,BR,-49.96271,-22.14723
Rua Edgard Silva Lima,Marília,SP,17527-030,BR,-49.97107,-22.22682
Viela Paulo Miranda,Sorocaba,SP,18022-050,BR,-47.47605,-23.49845
Rua Itapura,Sorocaba,SP,18044-290,BR,-47.47455,-23.51439
Rua Osmar Ramos Tocantins,Jaboticabal,SP,14875-456,BR,-48.34511,-21.25435
Avenida Jesus Vilanova Vidal,São José do Rio Preto,SP,15020-060,BR,-49.40507,-20.81745
Rua Ivete Moreno Cetrone,São José do Rio Preto,SP,15054-632,BR,-49.32853,-20.75787
Rua Nair dos Santos Lima,São José do Rio Preto,SP,15090-290,BR,-49.39558,-20.84017
Rua dos Guatambus,Jales,SP,15704-248,BR,-50.54733,-20.28046
Praça Teotônio Brandão Vilela,Itapetininga,SP,18205-750,BR,-48.04465,-23.5848
Avenida Doutor Evandro Ruivo,Itapetininga,SP,18207-700,BR,-48.07609,-23.61252
Rua Josephina Peternussi Girotto,Presidente Prudente,SP,19045-290,BR,-51.37981,-22.14506
Rua Waldir Greghi,Presidente Prudente,SP,19100-380,BR,-51.39899,-22.08958
Rua Lisboa,Serra,ES,29163-529,BR,-40.23303,-20.21542
Avenida Braúna,Serra,ES,29167-124,BR,-40.2514,-20.1951
Rua Reinaldo Pereira Carvalho,Colatina,ES,29704-715,BR,-40.67173,-19.49218
Rua Bahia,Colatina,ES,29709-366,BR,-40.70584,-19.52776
Rua Rio Branco,Betim,MG,32676-290,BR,-44.17684,-19.93644
Rua Carlos Antônio Cândido,Santa Luzia,MG,33010-474,BR,-43.93115,-19.76782
Rua Josias Gonçalves Moraes,Ribeirão das Neves,MG,33822-517,BR,-44.0892,-19.82424
Rua José Nelson,Sabará,MG,34575-380,BR,-43.84071,-19.87968
Rua Gávea,Sabará,MG,34710-540,BR,-43.89928,-19.88129
Rua Pedro Fernandes Morais,Governador Valadares,MG,35030-309,BR,-41.95036,-18.84821
Rua Bezerra de Araújo,Governador Valadares,MG,35044-970,BR,-41.94655,-18.88649
Rua Nilo Peçanha,Ipatinga,MG,35160-271,BR,-42.5662,-19.51217
Rua Açafrão,Ipatinga,MG,35162-313,BR,-42.53638,-19.46694
Rua UI,Seropédica,RJ,23891-490,BR,-43.69227,-22.76821
Rua Antônio Rosa,Seropédica,RJ,23895-740,BR,-43.73117,-22.71964
Rua São Vicente,Angra dos Reis,RJ,23932-495,BR,-44.29579,-22.9817
Travessa Manoel Farias,Angra dos Reis,RJ,23953-090,BR,-44.53663,-23.01856
Rua Jornalista Irineu Marinho,Niterói,RJ,24230-126,BR,-43.10427,-22.90923
Rua Monte Castelo,Niterói,RJ,24315-310,BR,-43.07215,-22.9023
Rua José de Carvalho Heitor,Niterói,RJ,24358-620,BR,-43.07247,-22.87124
Rua Hoel Nogueira,São Gonçalo,RJ,24471-304,BR,-44.59637,-23.04117
Rua Major Felipe Pinto,São Gonçalo,RJ,24474-175,BR,-44.59637,-23.04117
Rua Auta Rosa,São Gonçalo,RJ,24738-590,BR,-42.94164,-22.85971
Travessa José Luna de Alencar,Itaboraí,RJ,24800-383,BR,-42.86079,-22.74754
Rua Vinte e Um,Itaboraí,RJ,24859-572,BR,-42.84627,-22.74729
Praça Lafaiete Coutinho,Rio de Janeiro,RJ,21831-265,BR,-43.48568,-22.88979
Rua Inhovera,Rio de Janeiro,RJ,21921-720,BR,-43.19306,-22.80506
Praça Benedicta Cunha de Paula,Avaré,SP,18702-593,BR,-48.92336,-23.09902
Rua Armando Silveira,Avaré,SP,18704-574,BR,-48.9362,-23.12806
Rua Enriente Morrino,Rio de Janeiro,RJ,22775-049,BR,-43.37079,-22.97451
Caminho da Furna,Rio de Janeiro,RJ,23017-430,BR,-43.50915,-22.93213
Rua Baliza,Rio de Janeiro,RJ,23055-015,BR,-43.57662,-22.91213
Rua Ararupe,Rio de Janeiro,RJ,23055-310,BR,-43.57447,-22.91351
Rua José Manuel Máximo,Rio de Janeiro,RJ,23073-020,BR,-43.58947,-22.89375
Rua Félix Bernardelli,Rio de Janeiro,RJ,23078-030,BR,-43.58428,-22.88283
Rua Itamaraju,Rio de Janeiro,RJ,23092-632,BR,-43.54189,-22.87538
Rua Dilson Funaro,Rio de Janeiro,RJ,23570-650,BR,-43.65797,-22.91645
Rua Ema,Itaguaí,RJ,23825-010,BR,-43.87097,-22.90227
Rua Visconde da Graça,Rio de Janeiro,RJ,22461-010,BR,-43.21748,-22.96423
Rua Frei Rodovalho,Rio de Janeiro,RJ,22713-210,BR,-43.3846,-22.93573
Estrada da Boiuna,Rio de Janeiro,RJ,22723-018,BR,-43.41433,-22.91026
Rua São Calisto,Rio de Janeiro,RJ,22725-640,BR,-43.37149,-22.9131
Rua Sete,Maricá,RJ,24924-020,BR,-42.93699,-22.90118
Rua dos Lírios,Maricá,RJ,24930-484,BR,-42.88465,-22.92988
Estrada dos Surundus,Petrópolis,RJ,25730-720,BR,-43.11487,-22.43324
Rua das Coníferas,Petrópolis,RJ,25745-113,BR,-43.18204,-22.50384
Rua das Paineiras,Petrópolis,RJ,25745-530,BR,-43.11183,-22.37077
Rua Bosque,Nova Iguaçu,RJ,26033-170,BR,-43.46816,-22.72252
Rua Casimiro de Abreu,Nova Iguaçu,RJ,26064-130,BR,-43.51754,-22.73314
Travessa Vinte e Sete,Belford Roxo,RJ,26115-792,BR,-43.37777,-22.74193
Rua José Rocha,Belford Roxo,RJ,26130-045,BR,-43.36606,-22.75147
Rua E,Belford Roxo,RJ,26155-504,BR,-43.35479,-22.74317
Rua Irene Ferreira,Belford Roxo,RJ,26187-480,BR,-43.33994,-22.73316
Beco Jorge do Carmo,Três Rios,RJ,25810-246,BR,-43.22141,-22.09402
Rua B,Magé,RJ,25937-780,BR,-43.02557,-22.58752
Rua Casemiro de Abreu,Teresópolis,RJ,25959-055,BR,-42.98081,-22.44841
Rua Manuel Bandeira,Duque de Caxias,RJ,25275-624,BR,-43.26016,-22.63744
Rua José Geraldo Nogueira,São João de Meriti,RJ,25555-050,BR,-43.37942,-22.77726
,Duas Barras,RJ,28655-000,BR,-42.41079,-22.0777
Rua Joaquim Vitório,Rio das Ostras,RJ,28894-482,BR,-41.94473,-22.50943
Rua Beli Milher,Rio das Ostras,RJ,28899-278,BR,-41.90622,-22.47728
Rua Pedro Carlos de Souza,Vitória,ES,29017-282,BR,-40.32059,-20.31758
Rua Macau,Vitória,ES,29026-763,BR,-40.34805,-20.31079
Rua Artacerce Brotto,Vitória,ES,29065-700,BR,-40.29931,-20.27949
Rua Seis,Vila Velha,ES,29108-022,BR,-40.30813,-20.36502
Rua Floresta,Vila Velha,ES,29118-105,BR,-40.34068,-20.3456
Rua Professor Humberto de Campos,Vila Velha,ES,29119-220,BR,-40.32549,-20.34246
Rua Janeiro,Vila Velha,ES,29124-401,BR,-40.3549,-20.43252
Beco Tânia Gimenes Parra,Nova Iguaçu,RJ,26270-043,BR,-43.51321,-22.77477
Rua Américo de Jesus,Nova Iguaçu,RJ,26271-132,BR,-43.50987,-22.76955
Rua Rúbens Napoleão,Nova Iguaçu,RJ,26290-723,BR,-43.5297,-22.77639
Rua Antônio Grande,Queimados,RJ,26311-190,BR,-43.57664,-22.7256
Rua Seis,Japeri,RJ,26480-506,BR,-43.568,-22.67919
Rua Rio Piabanha,Volta Redonda,RJ,27250-200,BR,-44.06428,-22.50649
Rua Vinte e Nove,Volta Redonda,RJ,27259-310,BR,-44.06872,-22.54622
Rua Santa Luzia,Barra Mansa,RJ,27321-070,BR,-44.18571,-22.51935
Rua Frederico Ozanan,Barra Mansa,RJ,27323-590,BR,-44.16346,-22.54481
Rua Antônio Rodrigues Valente,Barra Mansa,RJ,27335-400,BR,-44.11268,-22.54291
Rua Reverendo Samuel Brust,Macaé,RJ,27943-810,BR,-41.78367,-22.38283
Rua Walter Forster,Macaé,RJ,27971-781,BR,-41.78539,-22.37223
Rua Doutor Antônio Joaquim de Melo,Campos dos Goytacazes,RJ,28020-190,BR,-41.29866,-21.78163
Rua Clóvis de Souza Medina,Campos dos Goytacazes,RJ,28040-710,BR,-41.34596,-21.75794
Rua Benedita dos Santos Loureiro,Guarapari,ES,29201-310,BR,-40.51281,-20.64383
Rua Presidente Costa e Silva,Guarapari,ES,29209-062,BR,-40.54661,-20.73696
Rua Dez,Guarapari,ES,29220-290,BR,-40.47498,-20.62543
Rua Domingos José Barbosa,Guarapari,ES,29220-450,BR,-40.48527,-20.6245
Travessa Paulo Cesário Martins,Cachoeiro de Itapemirim,ES,29302-853,BR,-41.10294,-20.86113
Rua Louzival Carvalho Filho,São Mateus,ES,29934-738,BR,-39.82314,-18.71739
Rua Manoel Guilherme Roscoe,Belo Horizonte,MG,30360-180,BR,-43.94596,-19.95808
Avenida Nossa Senhora de Fátima,Belo Horizonte,MG,30410-610,BR,-43.95377,-19.91498
Beco Carlito,Belo Horizonte,MG,30421-346,BR,-44.00181,-19.95555
Rua Sumaré,Belo Horizonte,MG,30692-090,BR,-44.05024,-19.99649
Rua Cana Verde,Belo Horizonte,MG,31270-490,BR,-43.95102,-19.85792
Rua Sérgio Miranda Moreira,Belo Horizonte,MG,31320-060,BR,-43.98528,-19.88125
Rua José Henrique Cardoso,Belo Horizonte,MG,31320-260,BR,-43.98341,-19.88356
Rua das Canárias,Belo Horizonte,MG,31560-050,BR,-43.9716,-19.84238
Beco São José,Belo Horizonte,MG,31842-072,BR,-43.92846,-19.83565
Rua Santa Isabel,Belo Horizonte,MG,31870-660,BR,-43.90049,-19.83552
Rua Geraldo Barreto Maia,Belo Horizonte,MG,31870-760,BR,-43.89935,-19.8399
Rua Luiz Romualdo da Silva,Belo Horizonte,MG,31970-311,BR,-46.60599,-20.72812
Rua dos Eletrecistas,Cariacica,ES,29148-712,BR,-40.41761,-20.3433
Rua Floriano Peixoto,Cariacica,ES,29153-095,BR,-40.36862,-20.30967
Quadra QL 8 Conjunto G,Brasília,DF,71590-801,BR,-47.77859,-15.75237
Quadra SHIS QI 5 Bloco E Gilberto Salomão,Brasília,DF,71615-550,BR,-47.83195,-15.82026
Avenida das Figueiras,Sinop,MT,78555-148,BR,-55.54885,-11.83297
Rua das Bergamoteiras,Sinop,MT,78556-620,BR,-55.51326,-11.88598
Rua Projetada 6,Sinop,MT,78559-234,BR,-55.54296,-11.8634
Rua Pica Pau,Arapongas,PR,86701-040,BR,-51.4415,-23.41275
Rua Aimoré,Pato Branco,PR,85504-038,BR,-52.66711,-26.21953
Rua Serra Grande,Cascavel,PR,85817-550,BR,-53.40573,-24.95235
Quadra 302 Conjunto 4,Brasília,DF,71692-770,BR,-47.78118,-15.90471
Quadra QC 6 Conjunto 21,Brasília,DF,71882-271,BR,-48.04463,-15.91823
Rua Divino Pai Eterno,Rondonópolis,MT,78714-118,BR,-54.65018,-16.43533
Rua Stefano Antonio Stratis,Rondonópolis,MT,78715-190,BR,-54.62234,-16.46587
Avenida Paraíba,Rondonópolis,MT,78718-010,BR,-54.62189,-16.45437
Rua D,Rondonópolis,MT,78745-838,BR,-54.64927,-16.43469
Rua Pioneiro José Francisco,Maringá,PR,87055-640,BR,-51.90276,-23.45114
Rua Octávio Marchi,Maringá,PR,87060-701,BR,-51.93085,-23.42195
Rua Campo Grande,Sarandi,PR,87112-041,BR,-51.86984,-23.46391
Praça Clemente Zobol,Sarandi,PR,87118-539,BR,-51.87351,-23.44492
Condomínio Alphaville Residencial 3 Quadra AM,Cidade Ocidental,GO,72897-332,BR,-47.81529,-16.05437
Quadra 221,Santo Antônio do Descoberto,GO,72902-464,BR,-48.30674,-15.94193
Quadra 247,Santo Antônio do Descoberto,GO,72903-006,BR,-48.30674,-15.94193
Quadra 35,Águas Lindas de Goiás,GO,72912-421,BR,-48.268869512195124,-15.723993902439025
Quadra QC 6 Conjunto 28,Brasília,DF,71882-278,BR,-48.04938,-15.91024
Quadra C 12,Brasília,DF,72010-120,BR,-47.92992,-15.82168
Quadra QNL 12 Bloco A,Brasília,DF,72156-211,BR,-47.92909,-15.77829
Rua Ottawa,Campo Grande,MS,79014-060,BR,-54.59173,-20.40908
Rua Antônio Marques Rodrigues,Campo Grande,MS,79033-291,BR,-54.56732,-20.42729
Rua Muriqui,Campo Grande,MS,79035-530,BR,-54.56719,-20.40592
Rua Orion,Cianorte,PR,87206-112,BR,-52.62667,-23.67589
Rua Maués,Cianorte,PR,87209-112,BR,-52.60947,-23.66648
Rua Segismundo Dlugosz,Campo Mourão,PR,87310-370,BR,-52.35574,-24.01357
Rua Siegfried Kienen,Umuarama,PR,87509-797,BR,-53.32329,-23.75508
Área Especial Área Especial para Indústria 10 Lote 9,Brasília,DF,73050-608,BR,-47.80147,-15.66315
Quadra 5 MR 9,Planaltina,GO,73750-089,BR,-47.60905,-15.43508
Quadra 7 AE,Planaltina,GO,73752-137,BR,-47.61088,-15.43246
Quadra EQNP 15/19 Módulo E,Brasília,DF,72241-575,BR,-48.12946,-15.81907
Quadra QNO 19 Conjunto 17,Brasília,DF,72261-017,BR,-47.92989,-15.7748
Rua Vergílio Fantini,Florianópolis,SC,88032-030,BR,-48.50636,-27.53697
Servidão Luiza Fernandes Costa,Florianópolis,SC,88060-150,BR,-48.41334,-27.46771
Quadra QR 827 Conjunto 1,Brasília,DF,72339-116,BR,-47.92835,-15.76016
Rua Dolcinópolis,Campo Grande,MS,79106-020,BR,-54.68978,-20.44026
Rua Santa Bernadete,Campo Grande,MS,79116-600,BR,-54.64853,-20.4101
Avenida Rio Branco,Corumbá,MS,79304-902,BR,-57.64127,-19.00153
Rua Waldir João Sell,São José,SC,88104-735,BR,-48.64547,-27.6188
Rua Anna Maria do Nascimento,São José,SC,88107-501,BR,-50.91511,-27.02357
Rua Verônica da Silva Martins,Palhoça,SC,88138-807,BR,-48.62942,-27.77032
Rua FP20,Goiânia,GO,74393-200,BR,-49.31239,-16.73347
Rua das Margaridas,Goiânia,GO,74395-740,BR,-49.32459,-16.69978
Rua Inhumas,Goiânia,GO,74420-160,BR,-49.31613,-16.67618
Quadra 103 Conjunto 9,Brasília,DF,72600-314,BR,-48.063854444444445,-15.902101111111111
Beco Passarinho,Montes Claros,MG,39401-538,BR,-43.87207,-16.73667
Praça Mariano da Silva Campos,Varginha,MG,37002-580,BR,-45.4296,-21.55904
Travessa Ana de Souza,Varginha,MG,37006-540,BR,-45.44531,-21.56372
Rua Manoel Gomes de Oliveira,Itajubá,MG,37505-160,BR,-45.46409,-22.41948
Rua José Borges de Morais,Uberaba,MG,38017-080,BR,-47.92799,-19.74311
Vila São Jorge,Salvador,BA,40320-625,BR,-38.49337,-12.94068
3ª Travessa São Cristóvão,Salvador,BA,40365-015,BR,-38.4595,-12.97262
Travessa Jaime Coelho,Salvador,BA,40433-160,BR,-38.49773,-12.92202
2ª Travessa Amado Bahia,Salvador,BA,40490-062,BR,-38.51046,-12.98766
Travessa Vila Natal,Salvador,BA,41207-465,BR,-38.4471,-12.94833
Rua Praia da Boa Viagem,Salvador,BA,41214-775,BR,-38.44066,-12.9312
Rua Edgar Sanches,Salvador,BA,41321-465,BR,-38.42886,-12.90307
Rua Manoel Cordeiro,Salvador,BA,41350-470,BR,-38.41424,-12.924
Rua Almeida Garret,Salvador,BA,41815-320,BR,-38.46231,-12.99793
Rua Santa Ângela,Salvador,BA,41950-490,BR,-38.49362,-13.00823
Praça Dom Pedro II,Feira de Santana,BA,44002-328,BR,-38.96548,-12.25139
Rua Muritinga,Feira de Santana,BA,44023-722,BR,-38.98091,-12.25156
Rua Ângelo Alves Fernandes,Feira de Santana,BA,44096-012,BR,-38.92282,-12.25738
Rua Siqueira Campos,Vitória da Conquista,BA,45020-800,BR,-40.83312,-14.85979
Rua Trinta e Nove,Vitória da Conquista,BA,45037-835,BR,-40.82352,-14.90715
Rua Gregório Adriano,Montes Claros,MG,39401-542,BR,-43.8717,-16.70134
Rua da Lagoa,Teófilo Otoni,MG,39800-590,BR,-41.486,-17.86229
Alameda dos Ipês,Teófilo Otoni,MG,39801-444,BR,-41.48399,-17.84665
Avenida Cosme,Salvador,BA,40220-350,BR,-38.494,-12.9983
Rua Sebastião Gomes de Azevedo,Divinópolis,MG,35501-423,BR,-44.91674,-20.19593
Rua Lília Natividade,Divinópolis,MG,35502-131,BR,-44.89987,-20.11462
Rua Virgínia Maria de Jesus,Itaúna,MG,35680-207,BR,-44.56814,-20.08898
Rua Orquídea,Itaúna,MG,35680-429,BR,-44.59896,-20.08863
Rua Imaculada Conceição,Sete Lagoas,MG,35700-828,BR,-44.22854,-19.44596
Praça Terezinha Lanza Gonçalves,Sete Lagoas,MG,35701-488,BR,-44.22864,-19.46834
Rua Gerson Belém,Sete Lagoas,MG,35703-195,BR,-44.1761,-19.41676
Rua Trinta,Sete Lagoas,MG,35703-285,BR,-44.22249,-19.47773
Beco Dois,Itabira,MG,35900-786,BR,-43.22361,-19.65913
Rua Pedra Negra,Belo Horizonte,MG,31985-150,BR,-43.91075,-19.85828
Rua Doracina Ricardo de Barros,Contagem,MG,32115-230,BR,-44.02993,-19.89172
Rua Águas Marinhas,Contagem,MG,32183-295,BR,-44.02874,-19.85758
Avenida Paraguai,Betim,MG,32603-888,BR,-44.20443,-19.95379
Rua João Pessoa,Betim,MG,32623-528,BR,-44.11858,-19.94787
Rua Clemência Nunes Pinheiro,Betim,MG,32641-782,BR,-44.23315,-20.0295
Rua Brasil,Betim,MG,32670-014,BR,-44.1925,-19.93727
Rua Nalzira Ribeiro Batista,Betim,MG,32670-086,BR,-44.18742,-19.97403
Rua da Passagem,Juiz de Fora,MG,36048-340,BR,-43.35547,-21.69634
Rua Engenheiro Paulo Correa e Castro,Juiz de Fora,MG,36060-580,BR,-43.32511,-21.73596
Rua Manoel Alves,Juiz de Fora,MG,36071-430,BR,-43.31267,-21.77418
Rua Luci de Araújo Aragão,Uberaba,MG,38066-530,BR,-47.97406,-19.74851
Rua São Cristóvão,Araxá,MG,38184-074,BR,-46.94433,-19.59743
Rua Newton Fonseca Arantes,Uberlândia,MG,38400-306,BR,-48.30145,-18.92107
Praça Chico Mendes,Uberlândia,MG,38401-548,BR,-48.27833,-18.91907
Avenida Carlos Henrique Tassini,Uberlândia,MG,38401-625,BR,-48.29547,-18.87638
Rua Tucuruí,Uberlândia,MG,38410-637,BR,-48.24001,-18.94358
Rua Oito de Maio,Araguari,MG,38443-026,BR,-48.1993,-18.63765
Rua Almerio José de Souza,Patos de Minas,MG,38705-164,BR,-46.50351,-18.59561
Rua Lucílio Fagundes,Montes Claros,MG,39400-171,BR,-43.86165,-16.7119
Avenida Recanto Quadra 205,Brasília,DF,72610-535,BR,-48.09664,-15.91304
Quadra 509 Conjunto 9,Brasília,DF,72660-136,BR,-48.10019,-15.9263
Quadra 511 Conjunto 13,Brasília,DF,72660-339,BR,-48.10776,-15.93187
Quadra 110,Luziânia,GO,72833-610,BR,-47.93262,-16.24311
Rua Ataíde de Souza Leitão,Dourados,MS,79822-560,BR,-54.84039,-22.24002
Rua Ponta Porã,Dourados,MS,79833-355,BR,-54.78767,-22.21639
Rua Doutor Nelly Piccoli,Itajaí,SC,88308-635,BR,-48.69889,-26.92665
Rua José L. de A. Neto,Goiânia,GO,74485-695,BR,-49.30156,-16.74397
Rua JC318,Goiânia,GO,74491-709,BR,-49.43562,-16.67672
Rua Marginal,Luziânia,GO,72851-610,BR,-47.96296,-16.12187
Quadra 26,Novo Gama,GO,72861-103,BR,-48.06343,-16.0695
Rua Santa Madalena de Piazzi,Curitiba,PR,80240-550,BR,-49.30351,-25.4539
Rua Carlos Dietzsch,Curitiba,PR,80330-000,BR,-49.29813,-25.47198
Rua Capitão Joseph Pereira Quevedo,Curitiba,PR,80710-120,BR,-49.2967,-25.42267
Rua Vital Vernize,Curitiba,PR,81460-377,BR,-49.33829,-25.55192
Rua Alfredo Ponciano,Navegantes,SC,88371-415,BR,-48.68451,-26.87578
Rua dos Diamantes,Goiânia,GO,74663-260,BR,-49.21808,-16.68378
Rua Guarani,Goiânia,GO,74675-360,BR,-49.21375,-16.62056
Rua dos Jerivás,Goiânia,GO,74680-015,BR,-49.20639,-16.72539
Rodovia BR-153,Goiânia,GO,74845-900,BR,-49.20538,-16.63009
Rua Moyses Martins,Curitiba,PR,81510-580,BR,-49.23916,-25.47242
Rua Arnaldo Gabardo,Curitiba,PR,81710-330,BR,-49.26319,-25.49829
Rua Júlio Barbosa,Curitiba,PR,82400-381,BR,-49.35578,-25.39208
Rua Avelino Lopes Conceição,Ponta Grossa,PR,84026-395,BR,-50.12364,-25.1123
Rua Doutor Mário Jorge,Ponta Grossa,PR,84030-220,BR,-50.11159,-25.08478
Rua Visconde de Itaboraí,Ponta Grossa,PR,84053-020,BR,-50.17379,-25.08839
Travessa do Carmo,Porto Alegre,RS,90050-210,BR,-51.22632,-30.03868
Rua Camélia,Itacoatiara,AM,69104-810,BR,-58.42431,-3.13426
Rua NC-O,Boa Vista,RR,69316-202,BR,-60.73571,2.76593
Quadra ACSE 11 Rua SE 4,Palmas,TO,77020-036,BR,-48.2986810454926,-10.318224636896467
Quadra ASR SE 75 Alameda 9,Palmas,TO,77022-440,BR,-48.3069,-10.18685
Quadra ARSE 141 Avenida LO 31,Palmas,TO,77024-720,BR,-48.32879,-10.26672
Rua Santo Estevão,Colombo,PR,83404-470,BR,-49.20845,-25.36457
Rua Joanim Stroparo,Campo Largo,PR,83601-460,BR,-49.52473,-25.46959
Praça Francisco Kellner,Campo Largo,PR,83601-752,BR,-49.57351,-25.4673
Rua 11,Rio Verde,GO,75906-346,BR,-50.92292522777235,-17.79731492407588
Rua Rosa Guimarães,Acreúna,GO,75960-970,BR,-50.37561,-17.40007
Rua Campestre,São José dos Pinhais,PR,83085-475,BR,-49.10688,-25.61451
Avenida Ayrton Senna da Silva,Paranaguá,PR,83206-660,BR,-48.55098,-25.55053
Rua Bolsão dos Tucanos,Pinhais,PR,83320-440,BR,-49.17976,-25.42894
Rua Alexandre da Silva,Joinville,SC,89215-425,BR,-48.90634,-26.3286
Rua Antônio Marcos de Oliveira,Joinville,SC,89231-412,BR,-48.79747,-26.34872
Rua Apurimac,Manaus,AM,69068-480,BR,-59.99727,-3.12328
Rua Rosquildes Freire,Manaus,AM,69082-838,BR,-59.96501,-3.08193
Rua Vera Cruz,Porto Velho,RO,76801-683,BR,-66.61326,-9.76015
Travessa 7,Criciúma,SC,88807-162,BR,-49.41728,-28.64813
Rua Teodoro Inácio Teixeira,Criciúma,SC,88812-327,BR,-49.37165,-28.678
Rua RB 10,Goiânia,GO,74888-040,BR,-49.22901,-16.6098475
Rua H 57,Aparecida de Goiânia,GO,74936-090,BR,-49.30197,-16.77576
Alameda Onze de Novembro,Aparecida de Goiânia,GO,74945-270,BR,-49.24457,-16.81887
Rua D,Anápolis,GO,75096-686,BR,-48.93044,-16.32311
Rua Jordânia,Anápolis,GO,75143-100,BR,-48.9643,-16.33862
Rua Edmundo Alberto Mercer,Curitiba,PR,82620-120,BR,-49.2256,-25.38357
Rua Adão Koboski,São José dos Pinhais,PR,83050-410,BR,-49.17871,-25.50599
Rua Floresta,Criciúma,SC,88817-107,BR,-49.40921,-28.67303
Rua Henrique Weise,Blumenau,SC,89032-510,BR,-49.13544,-26.89867
Rua Piracuí,Manaus,AM,69015-202,BR,-60.01461,-3.01195
Rua Catarina Gadens,Campo Largo,PR,83607-330,BR,-49.50639,-25.44816
Rua Natanael Amorim Vieira,Joinville,SC,89234-042,BR,-48.77175,-26.34625
Rua Júlio Hintz,Jaraguá do Sul,SC,89259-665,BR,-49.09004,-26.50934
Servidão 96,Jaraguá do Sul,SC,89265-052,BR,-49.10115,-26.46368
Rua Walquiria Vieiralves,Manaus,AM,69098-268,BR,-59.95461,-3.05381
Rua Aluízio Ferreira,Ji-Paraná,RO,76900-024,BR,-61.95202,-10.88764
Rua Maringá,Ji-Paraná,RO,76909-818,BR,-61.90323,-10.88427
Rua Duque de Caxias,Cacoal,RO,76963-818,BR,-61.44236,-11.43386
Avenida Castelo Branco,Cacoal,RO,76967-489,BR,-61.47686,-11.43952
Rua Lúcio de Paula Lopes,Araucária,PR,83707-150,BR,-49.39791,-25.578
Rua Joaquim de Oliveira Godoy,Araucária,PR,83709-445,BR,-49.37908,-25.62139
Rua Treze de Setembro,Ji-Paraná,RO,76900-781,BR,-61.96763,-10.87336
Rua D,Caraguatatuba,SP,11675-642,BR,-45.34161,-23.59243
Rua Dom Antônio Luiz de Souza,Caraguatatuba,SP,11676-330,BR,-45.34469,-23.59463
Rua Paraguai,Caraguatatuba,SP,11677-560,BR,-45.31654,-23.57592
Rua Amazonas,Itaquaquecetuba,SP,08572-680,BR,-46.34421,-23.50169
Rua Taubaté,Itaquaquecetuba,SP,08577-680,BR,-46.36702,-23.4925
Rua Joaquim Serra,Itaquaquecetuba,SP,08583-680,BR,-46.37969,-23.44024
Rua Benedito Leite de Siqueira,Suzano,SP,08613-530,BR,-46.27792,-23.54052
Rua Antônio dos Reis,Suzano,SP,08673-100,BR,-46.31582,-23.53939
Rua Setenta e Nove,Suzano,SP,08690-425,BR,-46.31663,-23.50429
Rua Duas Irmãs,São Paulo,SP,04866-175,BR,-46.72623,-23.80341
Rua Doutor Antonio Faria de Miranda,São Paulo,SP,04895-041,BR,-46.65505,-23.86677
Rua William Speers,São Paulo,SP,05065-902,BR,-46.70406,-23.51734
Rua Carcino,São Paulo,SP,05223-060,BR,-46.74146,-23.41028
Rua Cardoso de Almeida,São Paulo,SP,01251-000,BR,-46.67496,-23.55049
Praça Lourenço de Bellis,São Paulo,SP,02138-000,BR,-46.57457,-23.48962
Praça Erotides de Campos,São Paulo,SP,02227-310,BR,-46.57182,-23.48125
Rua José Corrêa Gomes,São Paulo,SP,02357-100,BR,-46.61238,-23.4477
Rua Afonsina,São Bernardo do Campo,SP,09633-000,BR,-46.56828,-23.65454
Rua Guilherme Tell,São Bernardo do Campo,SP,09663-010,BR,-46.59886,-23.65406
Rua Olegário Herculano,São Bernardo do Campo,SP,09732-570,BR,-46.56185,-23.68241
Rua Emília,São Bernardo do Campo,SP,09830-220,BR,-46.53316,-23.78066
Rua Padre Cícero,São Bernardo do Campo,SP,09890-320,BR,-46.57072,-23.69706
Rua Marco Antônio,Diadema,SP,09981-110,BR,-46.60744,-23.71455
Rua Professor Celso da Cunha Alves,Santos,SP,11013-570,BR,-46.33534,-23.93938
Avenida Senador Feijó,Santos,SP,11015-501,BR,-46.32589,-23.93827
Rua Júlia Ferreira de Carvalho,Santos,SP,11090-050,BR,-46.36433,-23.93797
Rua Ida,São Paulo,SP,03813-390,BR,-46.61849,-23.56792
Rua Pacamum,São Paulo,SP,03983-110,BR,-46.5086,-23.60847
Rua Tibúrcio de Freitas,São Paulo,SP,03986-050,BR,-46.52338,-23.61172
Rua Nhumirim,São Paulo,SP,04294-040,BR,-46.60867,-23.61876
Travessa Luiz Carlos Kakiuthi,São Paulo,SP,04327-055,BR,-46.41676,-23.57097
Rua Francisco Luz,São Paulo,SP,05583-120,BR,-46.78866,-23.5834
Rua José Novais,São Paulo,SP,05711-160,BR,-46.74883,-23.60802
Rua Ivora,São Paulo,SP,05716-130,BR,-46.77552,-23.67164
Rua Francisco Gonzaga,São Paulo,SP,05763-380,BR,-46.76169,-23.64408
Rua Roberto Botelho,São Paulo,SP,05857-550,BR,-46.78342,-23.65678
Rua Tomás Campanella,São Paulo,SP,05866-160,BR,-46.76854,-23.67887
Rua José Aristides Jofre,Osasco,SP,06030-130,BR,-46.76575,-23.55924
Rua São Francisco,Osasco,SP,06124-270,BR,-46.79609,-23.54887
Rua Espedito Izídio Andrade,Osasco,SP,06150-270,BR,-46.81466,-23.56529
Avenida Comandante Sampaio,Osasco,SP,06192-000,BR,-46.80529,-23.52481
Rua Jasmim Branco,Osasco,SP,06226-250,BR,-46.77559,-23.50761
Viela Luzia Tasca Rocha,Jandira,SP,06612-005,BR,-46.90481,-23.53444
Rua Tóquio,Jandira,SP,06622-020,BR,-46.89681,-23.5413
Rua Serra das Araras,Itapevi,SP,06657-430,BR,-46.92898,-23.5624
Rua Pedro Álvares Cabral,Cubatão,SP,11542-090,BR,-46.46374,-23.91391
Rua Fernando Rego,Suzano,SP,08690-896,BR,-46.30992,-23.52701
Rua Luiz João Bourg,Mogi das Cruzes,SP,08720-350,BR,-46.18072,-23.54021
Rua Girassol,Mogi das Cruzes,SP,08771-321,BR,-46.26089,-23.46626
Travessa da Matriz,Mogi das Cruzes,SP,08830-650,BR,-46.1391,-23.51948
Rua Mirim,Mogi das Cruzes,SP,08830-660,BR,-46.21842,-23.56592
Rua Quatro,Mogi das Cruzes,SP,08832-030,BR,-46.20891,-23.57535
Rua Doutor Armando de Arruda Pereira,Santo André,SP,09050-070,BR,-46.52215,-23.69543
Travessa Paramirim,Santo André,SP,09071-487,BR,-46.54881,-23.65849
Praça Senador Victorino Freire,Santo André,SP,09190-720,BR,-46.51145,-23.68317
Rua Jonas Neto,Santo André,SP,09250-355,BR,-46.53172,-23.65639
Rua Ilha Grande,Santo André,SP,09272-386,BR,-46.49331,-23.65139
Rua Laércio Carlucci,Mauá,SP,09340-550,BR,-46.42919,-23.67541
Rua Lontras,Mauá,SP,09361-190,BR,-46.45813,-23.69752
Rua Rússia,Ribeirão Pires,SP,09402-190,BR,-46.4123,-23.70014
Rua Marcolina Moreira,Guarulhos,SP,07021-010,BR,-46.53597,-23.47318
Viela Monte Horebe,Guarulhos,SP,07033-252,BR,-46.48155,-23.46619
Rua Segundo-Tenente Ary Rauen,Guarulhos,SP,07096-130,BR,-46.53716,-23.45066
Rua Pedro Paulo de Medeiros,Guarulhos,SP,07135-383,BR,-46.52998,-23.4218
Viela Pinhal,Guarulhos,SP,07142-060,BR,-46.49539,-23.41787
Rua do Cacau,Guarulhos,SP,07144-430,BR,-46.51684,-23.40193
Rua Iacri,Guarulhos,SP,07160-222,BR,-46.39806,-23.47807
Rua Una,Guarulhos,SP,07177-010,BR,-46.40165,-23.42078
Rua Itália,Guarulhos,SP,07195-030,BR,-46.51248,-23.4485
Avenida Serra Branca,Guarulhos,SP,07224-050,BR,-46.4841,-23.4635
Rua Antonina do Norte,Guarulhos,SP,07252-160,BR,-46.40499,-23.449
Avenida Perimetral,Arujá,SP,07432-435,BR,-46.36735,-23.4249
Rua Jacy,Arujá,SP,07435-705,BR,-46.31274,-23.41435
Rua Silvério Augusto Tavares,Cajamar,SP,07790-485,BR,-46.83835,-23.40801
Rua Pedro Vaz de Caminha,Franco da Rocha,SP,07845-210,BR,-46.71122,-23.31724
Alameda Rodrigo Monteiro,Taboão da Serra,SP,06785-525,BR,-46.81087,-23.63998
Rua Domingos de Paschoal,Embu das Artes,SP,06803-005,BR,-46.8515,-23.6523
Rua Francisco Ramos,São Paulo,SP,04437-060,BR,-46.67567,-23.67191
Rua Januário da Rocha Franca,São Paulo,SP,04455-340,BR,-46.67585,-23.68324
Rua Pedroso Alvarenga,São Paulo,SP,04531-929,BR,-46.67669,-23.58135
Rua Maria José Rangel,São Paulo,SP,04650-180,BR,-46.67114,-23.65608
Rua Henrique Fischer,São Paulo,SP,04705-090,BR,-46.69704,-23.62067
Rua Irmã Haydêe Ribeiro,São Paulo,SP,04736-010,BR,-46.69749,-23.64533
Rua Diogo das Neves Pires,São Paulo,SP,04840-350,BR,-46.68269,-23.7573
Rua Forte Augusto,São Paulo,SP,04865-090,BR,-46.71186,-23.78251
Rua Vivaldo Teixeira Carvalho,Assis,SP,19803-015,BR,-50.43451,-22.67592
Avenida Doutor Altino Arantes,Ourinhos,SP,19900-030,BR,-49.86807,-22.97523
Rua Afonso Cavalcanti,Rio de Janeiro,RJ,20211-984,BR,-43.20686,-22.91115
Rua Manoel Maurício,Rio de Janeiro,RJ,20765-295,BR,-43.2851,-22.86576
Rua Cambuca,Rio de Janeiro,RJ,21061-110,BR,-43.26237,-22.87116
Rua Cristiano Machado,Rio de Janeiro,RJ,21240-470,BR,-43.32063,-22.81357
Rua Coronel Nilton José dos Santos,Rio de Janeiro,RJ,21640-120,BR,-43.3935,-22.83313
Rua da Paz,Rio de Janeiro,RJ,21725-292,BR,-43.45157,-22.85568
Rua Carauri,Rio de Janeiro,RJ,21775-170,BR,-43.44774,-22.89
Rua João Pinn,Itapeva,SP,18401-060,BR,-48.8671,-23.9726
Rua Nagib Rodrigues de Almeida,Itapeva,SP,18412-151,BR,-48.92007,-23.96578
Travessa Francisco Queirolo,São Paulo,SP,02417-122,BR,-46.63034,-23.47858
Rua Crespo de Carvalho,São Paulo,SP,02832-210,BR,-46.69335,-23.4829
Rua Susana,São Paulo,SP,03223-000,BR,-46.56273,-23.58812
Rua Visconde de Goiana,São Paulo,SP,03273-120,BR,-46.56236,-23.58216
Avenida Trumain,São Paulo,SP,03366-000,BR,-46.53609,-23.56641
Rua Professor Martim Damy,São Paulo,SP,03505-020,BR,-46.53545,-23.5342
Rua Adauto de Assis,São Paulo,SP,03516-060,BR,-46.52627,-23.54264
Rua Caicó,São Paulo,SP,03551-060,BR,-46.5038,-23.53466
Avenida Cangaíba,São Paulo,SP,03711-007,BR,-46.53224,-23.50662
Rua Santo Rosa,Atibaia,SP,12943-050,BR,-46.56897,-23.12322
Rua Alcebíades Chicaroni,Atibaia,SP,12943-380,BR,-46.56651,-23.13264
Rua dos Filodendros,Atibaia,SP,12946-715,BR,-46.54797,-23.14664
Praça Ministro Doutor José Geraldo Rodrigues Alckimin,Atibaia,SP,12947-262,BR,-46.54987,-23.11725
Alameda dos Manacás,Atibaia,SP,12954-739,BR,-46.57733,-23.02734
Rua Adão Soares da Silva,Campinas,SP,13049-127,BR,-47.07767,-22.93702
Rua Iracema Santos de Oliveira,Campinas,SP,13053-310,BR,-47.10272,-23.04103
Rua Virgilina D. M. Santos,Campinas,SP,13056-002,BR,-47.13901,-22.99147
Rua Celso Soares Couto,Campinas,SP,13058-050,BR,-47.1933,-22.96174
Rua Roza Morganti Bueno,Campinas,SP,13060-755,BR,-47.11874,-22.94445
Rua Colomba Lorencetti Lunardi,Campinas,SP,13064-730,BR,-47.15431,-22.89841
Rua Fernando Martini,Campinas,SP,13073-060,BR,-47.07245,-22.88082
Rua Paulo da Silva Santos,São José dos Campos,SP,12230-091,BR,-45.88687,-23.21927
Rua Búzios,São José dos Campos,SP,12238-370,BR,-45.92669,-23.24751
Rodovia Presidente Dutra,Jacareí,SP,12321-902,BR,-46.09833,-23.32171
Rua Modesto Junqueira,Ribeirão Preto,SP,14076-120,BR,-47.78877,-21.15979
Rua Professor João Salles Pupo,Ribeirão Preto,SP,14076-430,BR,-47.78655,-21.15149
Avenida da Saudade,Ribeirão Preto,SP,14080-000,BR,-47.79864,-21.15892
Rua Doutor Morais Lima,Ribeirão Preto,SP,14092-160,BR,-47.77305,-21.1752
Rua José Américo Baratela,Sertãozinho,SP,14165-458,BR,-47.98733,-21.10783
Rua dos Angicos,Franca,SP,14405-631,BR,-47.44419,-20.57924
Rua Dom Aguirre,Bragança Paulista,SP,12900-430,BR,-46.54415,-22.95605
Rua Canadá,Bragança Paulista,SP,12903-391,BR,-46.55463,-22.94681
Rua Alexandre Herculano,Americana,SP,13469-010,BR,-47.34699,-22.74457
Rua Emílio Leão Brambilla,Americana,SP,13478-170,BR,-47.31906,-22.73383
Rua Elisabetta Battilana,Sumaré,SP,13178-654,BR,-47.20359,-22.80911
Rua Maria Dirce Muller,Hortolândia,SP,13186-690,BR,-47.19186,-22.88258
Rua José Pellizzari,Jundiaí,SP,13213-210,BR,-46.95975,-23.14474
Rua Nossa Senhora do Carmo,Itatiba,SP,13251-709,BR,-46.85474,-22.98761
Rua Diogo Sanches Fernandes,Itatiba,SP,13257-851,BR,-46.88593,-22.96246
Alameda Serra do Maracaju,Itu,SP,13308-584,BR,-47.34539,-23.40726
Rua Regente Feijó,Piracicaba,SP,13419-290,BR,-47.64325,-22.72273
Rua Leontino Boscariol,Piracicaba,SP,13420-340,BR,-47.62727,-22.7358
Rua Padre José Maria de Oliveira,Piracicaba,SP,13420-625,BR,-47.62373,-22.73698
Praça João XXIII,Santa Bárbara D'Oeste,SP,13450-018,BR,-47.41538,-22.75202
Rua Vereador Benedito Antônio Atanaz,Santa Bárbara D'Oeste,SP,13453-528,BR,-47.39184,-22.73842
Rua Elydio Pontes,Ribeirão Preto,SP,14065-270,BR,-47.82733,-21.13598
Rua Osvaldo Paes de Mello,Franca,SP,14407-629,BR,-47.43427,-20.48818
Rua José Barcellos Cardoso,Franca,SP,14407-643,BR,-47.4272,-20.486
Rua João Baptista dos Santos,Franca,SP,14409-361,BR,-47.4035,-20.48919
Rua Bento Amadeu Malavolta,Araraquara,SP,14806-287,BR,-48.15421,-21.74517
Avenida Said Azzem,Araraquara,SP,14806-332,BR,-48.1559,-21.72772
Avenida Capitão Noray de Paula e Silva,Araraquara,SP,14807-045,BR,-48.16527,-21.81157
Rua Professor Eduardo de Martini,São Carlos,SP,13571-100,BR,-47.86999,-22.03126
Rua Gelsomino Saia,São Carlos,SP,13571-310,BR,-47.8637,-22.03816
Rua Professor Zulingo,Leme,SP,13615-270,BR,-47.38718,-22.17509
Avenida José Manoel Ribeiro,Pirassununga,SP,13632-160,BR,-47.41012,-22.00368
Alameda das Açucenas,Pirassununga,SP,13632-460,BR,-47.41709,-22.01506
Rua Paulo Rigobello,Mococa,SP,13733-049,BR,-47.00071,-21.46275
Rua João Batista Giacoia,Mococa,SP,13735-017,BR,-47.0006,-21.47103
,Mococa,SP,13755-000,BR,-45.30102,-23.57088
Rua Professora Ana Luiza de Souza Aranha,Mogi Mirim,SP,13807-490,BR,-46.96527,-22.39871
Rua Julia Barbosa do Couto,Mogi Guaçu,SP,13843-229,BR,-46.93668,-22.38754
Rua Palmira Maria de Souza,São João da Boa Vista,SP,13876-604,BR,-46.78361,-22.00567
Rua México,Itapira,SP,13972-263,BR,-46.81308,-22.43155
Rua Albino Rodrigues de Almeida,Ribeirão Preto,SP,14056-711,BR,-47.85063,-21.14964
Avenida Primo Meneghetti,Franca,SP,14402-465,BR,-47.3496,-20.51714
Rua Iguatemi,Catanduva,SP,15808-325,BR,-48.94827,-21.14569
Avenida Carlos Mariani,Matão,SP,15990-280,BR,-48.3515,-21.60206
Rua Isamar,Araçatuba,SP,16075-475,BR,-50.46443,-21.18613
Rua Daniele Calixto Escorpioni,Birigui,SP,16202-355,BR,-50.30399,-21.28777
Rua Natal Fornazari,Bauru,SP,17035-070,BR,-49.00952,-22.31777
Praça Girassol,Marília,SP,17502-410,BR,-50.11097,-22.27276
Estrada Municipal Rosália,Marília,SP,17533-220,BR,-49.93537,-22.1923
Avenida Tabajaras,Tupã,SP,17601-120,BR,-50.50951,-21.93104
Praça Doutor Ferreira Braga,Sorocaba,SP,18010-250,BR,-47.45473,-23.49897
Rua Juvenal Wey,Sorocaba,SP,18075-970,BR,-47.474,-23.47621
Rua Maria Josefa Gimenes Gerrero,Sorocaba,SP,18078-452,BR,-47.47005,-23.49373
Rua Professor Alberto Rossi,Sorocaba,SP,18079-342,BR,-47.48587,-23.44469
Rua Augusto Silva,Sorocaba,SP,18080-250,BR,-47.46334,-23.48614
Avenida Vicente Gullo,Araraquara,SP,14807-214,BR,-48.16409,-21.80289
Rua João Oliveira de Faria,São José do Rio Preto,SP,15054-040,BR,-49.35837,-20.78024
Rua Irmã Helena Augusta Alves,São José do Rio Preto,SP,15076-493,BR,-49.34837,-20.83368
Avenida Presidente Juscelino Kubitschek,Jales,SP,15700-214,BR,-50.54867,-20.26823
Avenida Vela Olímpica,Sorocaba,SP,18087-350,BR,-47.35783,-23.42818
Rua Miguel Martins de Oliveira,Votorantim,SP,18119-286,BR,-46.88914,-23.6578
Travessa dos Portugueses,São Roque,SP,18136-160,BR,-47.1361,-23.53961
Rua José Gimenes,Presidente Prudente,SP,19063-400,BR,-51.44907,-22.135
Rua Girassol I,Serra,ES,29162-691,BR,-40.32064,-20.12665
Rua Girassol,Aracruz,ES,29190-742,BR,-40.27613,-19.8011
Rua Salvador Pireda,Colatina,ES,29705-755,BR,-40.61933,-19.51343
Rua Israel,Colatina,ES,29709-350,BR,-40.70219,-19.52679
Beco Bom Jesus,Santa Luzia,MG,33115-038,BR,-43.92681,-19.7717
Rua Urupês,Santa Luzia,MG,33125-390,BR,-43.94628,-19.79377
Rua Ananias Tomaz dos Santos,Governador Valadares,MG,35024-750,BR,-41.99713,-18.83471
Rua Palmeiras,Governador Valadares,MG,35052-835,BR,-41.98408,-18.84933
Rua Berlim,Ipatinga,MG,35164-029,BR,-42.558,-19.43488
Rua Mairiporã,Ipatinga,MG,35164-269,BR,-42.56135,-19.44183
Rua Tantaro,Coronel Fabriciano,MG,35171-025,BR,-42.64383,-19.50046
Beco Um,Coronel Fabriciano,MG,35171-444,BR,-42.60652,-19.51951
Rua Tharsis e Paula,Seropédica,RJ,23895-175,BR,-43.70356,-22.74651
Rua Nilópolis,Angra dos Reis,RJ,23934-195,BR,-44.29947,-22.97039
Rua Boa Sorte,Angra dos Reis,RJ,23954-240,BR,-44.40179,-22.93778
Travessa Monte Gerezim,Angra dos Reis,RJ,23954-355,BR,-44.5311,-23.00924
Travessa das Bromélias,Angra dos Reis,RJ,23955-405,BR,-44.53313,-23.00485
Rua Tomé Tostes,Niterói,RJ,24240-450,BR,-43.0924,-22.89178
Rua Havaí,São Gonçalo,RJ,24455-475,BR,-44.59637,-23.04117
Rua Luiza de Gusmão,São Gonçalo,RJ,24470-400,BR,-44.59637,-23.04117
Rua Eduardo Brasão,São Gonçalo,RJ,24711-171,BR,-42.99628,-22.81693
Rua Capistrano de Abreu,São Gonçalo,RJ,24737-596,BR,-42.94191,-22.84598
Rua Lázaro Moncef,São Gonçalo,RJ,24754-090,BR,-44.59637,-23.04117
Rua João Dias Filho,Itaboraí,RJ,24808-336,BR,-42.85889,-22.75456
Rua República dos Italianos,Maricá,RJ,24900-490,BR,-42.80967,-22.91848
Estrada da Chuva,Maricá,RJ,24906-010,BR,-42.93164,-22.9074
Estrada do Engenho,Rio de Janeiro,RJ,21840-000,BR,-43.47052,-22.86645
Rua Havana,Rio de Janeiro,RJ,21870-020,BR,-43.46009,-22.87419
Rua São Jorge,Rio de Janeiro,RJ,21922-340,BR,-43.27926,-22.86405
Rua do Sítio,Rio de Janeiro,RJ,23059-782,BR,-43.286,-22.91542
Rua do Noturno,Rio de Janeiro,RJ,22260-162,BR,-43.38005,-22.83232
Rua Cândido Ferreira de Souza,Rio de Janeiro,RJ,22713-164,BR,-43.39009,-22.92988
Estrada do Itanhangá,Rio de Janeiro,RJ,22753-005,BR,-43.31154,-22.99053
Rua Quatro,Maricá,RJ,24919-660,BR,-42.87537,-22.9285
Rua das Flores,Maricá,RJ,24920-590,BR,-42.8236,-22.9285
Rua Manoel Gomes Quintanilha,Maricá,RJ,24930-676,BR,-42.89997,-22.93318
Rua Capitão Mello,Maricá,RJ,24937-010,BR,-43.00224,-22.95953
Rua R,Maricá,RJ,24940-640,BR,-42.93083,-22.94137
Rua Chuí,Maricá,RJ,24943-650,BR,-42.93164,-22.9074
Alameda do Manacá,Petrópolis,RJ,25745-610,BR,-43.10434,-22.35575
Rua São Jorge,Nova Iguaçu,RJ,26032-110,BR,-43.47773,-22.726
Rua Isidro Machado,Nova Iguaçu,RJ,26040-270,BR,-43.44171,-22.71588
Rua Ônix,Belford Roxo,RJ,26127-343,BR,-43.41981,-22.72821
Avenida Gonçalves Gatto,Belford Roxo,RJ,26130-230,BR,-43.4049,-22.76976
Travessa Nunes Sampaio,Belford Roxo,RJ,26140-425,BR,-43.42288,-22.7488
Alameda das Magnólias,Belford Roxo,RJ,26171-390,BR,-43.35331,-22.73455
Rua Devair Leão,Belford Roxo,RJ,26183-625,BR,-43.41635,-22.70408
Rua Orlando Prioli,Magé,RJ,25907-629,BR,-43.16061,-22.6299
Ladeira Frei Basílio,Magé,RJ,25922-512,BR,-43.04763,-22.65988
Rua B,Guapimirim,RJ,25948-170,BR,-42.96278,-22.50911
Rua O,Guapimirim,RJ,25948-252,BR,-43.01559,-22.66454
Rua Machado Coelho,Nova Iguaçu,RJ,26012-120,BR,-43.43225,-22.74547
Rua Cosme e Damião,Nova Iguaçu,RJ,26012-452,BR,-43.43443,-22.73672
Rua Itagore,Duque de Caxias,RJ,25035-580,BR,-43.31232,-22.75902
Rua Esperança,Duque de Caxias,RJ,25211-360,BR,-43.23444,-22.60681
Travessa Cândido Souza Monteiro,São João de Meriti,RJ,25515-430,BR,-43.35967,-22.80203
Travessa Paulo da Silva Torres,Petrópolis,RJ,25640-232,BR,-43.18204,-22.50384
Rua Ortigão,Nova Friburgo,RJ,28630-030,BR,-42.53279,-22.27008
Rua Iracema Leite Nader,Rio das Ostras,RJ,28893-208,BR,-41.95785,-22.53012
Rua Fernando de Noronha,Rio das Ostras,RJ,28893-292,BR,-41.95868,-22.52676
Avenida Vitória,Vitória,ES,29050-800,BR,-40.30521,-20.31052
Rua Bela Vista,Vila Velha,ES,29117-245,BR,-40.36189,-20.36185
Rua do Campo,Cariacica,ES,29142-728,BR,-40.37204,-20.38778
Rua Rui Barbosa,Nova Iguaçu,RJ,26277-080,BR,-43.48951,-22.75209
Rua Adriano,Nova Iguaçu,RJ,26280-020,BR,-43.4872,-22.74248
Rua Macapá,Japeri,RJ,26470-210,BR,-43.58626,-22.69032
Rua Antônio Barreiros,Volta Redonda,RJ,27215-350,BR,-44.09588,-22.50724
Rua Duzentos e Quarenta e Três,Volta Redonda,RJ,27265-445,BR,-44.12724,-22.52508
Rua José Abel,Barra Mansa,RJ,27336-470,BR,-44.18509,-22.58964
Rua dos Empresários,São Mateus,ES,29930-620,BR,-39.85978,-18.72237
Rodovia BR-381 Miguel Curry Carneiro,São Mateus,ES,29932-400,BR,-39.85978,-18.72237
Travessa Sempre Viva,São Mateus,ES,29940-340,BR,-39.86816,-18.72414
Avenida Barão dos Aymorés,São Mateus,ES,29942-462,BR,-39.87543,-18.72501
Beco Santa Marta,Belo Horizonte,MG,30335-230,BR,-43.95534,-19.95273
Rua Conselheiro Joaquim Caetano,Belo Horizonte,MG,30431-320,BR,-43.96918,-19.94914
Rua Juarez Teixeira Pinto,Belo Horizonte,MG,30590-525,BR,-46.60599,-20.72812
Rua dos Oboés,Belo Horizonte,MG,30850-480,BR,-44.00581,-19.92088
Rua Zilka Monteiro Pena,Belo Horizonte,MG,30855-180,BR,-44.0136,-19.92734
Avenida Ghande,Belo Horizonte,MG,30882-662,BR,-44.01656,-19.87572
Rua Pedro Leopoldo,Belo Horizonte,MG,31210-270,BR,-43.95026,-19.9086
Rua Ardósia,Belo Horizonte,MG,31210-480,BR,-43.9556,-19.90872
Rua Lúcio de Oliveira,Belo Horizonte,MG,31742-073,BR,-43.93863,-19.83227
Beco Papagaio,Belo Horizonte,MG,31744-162,BR,-43.97003,-19.94401
Rua Serra do Caparaó,Belo Horizonte,MG,31872-290,BR,-43.89833,-19.82512
Rua Diamantina,Cariacica,ES,29155-040,BR,-40.38402,-20.30214
Rua Pedro Salles,Serra,ES,29160-045,BR,-40.27764,-20.23153
Quadra SHIS QI 3 Conjunto 9,Brasília,DF,71605-290,BR,-47.83195,-15.82026
Avenida das Acácias,Sinop,MT,78550-214,BR,-55.50924,-11.86749
Rua dos Aricuris,Sinop,MT,78552-337,BR,-55.50849,-11.82752
Rua Aurélio Ocampos,Rondonópolis,MT,78705-504,BR,-54.57849,-16.47479
Rua Arara Celeste,Arapongas,PR,86702-471,BR,-51.44923,-23.39636
Rua Pavão,Arapongas,PR,86708-544,BR,-51.44716,-23.41257
Praça Vila Rica,Maringá,PR,87025-390,BR,-51.92371,-23.39439
Rua Barão do Tietê,Maringá,PR,87040-060,BR,-51.90088,-23.41557
Rua Pioneiro Benedito de Oliveira Franco,Maringá,PR,87047-585,BR,-51.92066,-23.38475
Rua Pioneira Maria Batista de Souza Neves,Maringá,PR,87055-460,BR,-52.00132,-23.45467
Rua Alduíno Machado,Cascavel,PR,85804-670,BR,-53.51173,-24.98734
Avenida Senador Atílio Fontana,Rondonópolis,MT,78745-800,BR,-54.66292,-16.4755
Rua América,Sarandi,PR,87111-440,BR,-51.86891,-23.45509
Rua Seul,Cianorte,PR,87203-402,BR,-52.63437,-23.65225
Quadra 275,Santo Antônio do Descoberto,GO,72903-062,BR,-48.30674,-15.94193
Quadra 54 Conjunto A,Águas Lindas de Goiás,GO,72911-226,BR,-48.26901219512195,-15.72402243902439
Quadra 32,Águas Lindas de Goiás,GO,72920-100,BR,-48.268837804878046,-15.72398756097561
Quadra 14 Área Especial 02,Brasília,DF,73050-003,BR,-47.78304,-15.64994
Quadra QS 18 Conjunto 5,Brasília,DF,71884-640,BR,-48.04098,-15.93144
Quadra QNJ 46,Brasília,DF,72140-460,BR,-47.92909,-15.77829
Rua São Floriano,Campo Grande,MS,79022-095,BR,-54.59063,-20.44443
Rua Deodápolis,Campo Grande,MS,79044-847,BR,-54.54528,-20.47052
Avenida Volta Redonda,Cianorte,PR,87207-060,BR,-52.61482,-23.67523
Avenida Luiz Diogo Ferraz,Paranavaí,PR,87703-532,BR,-52.45162,-23.08403
Rodovia BR-020,Brasília,DF,73130-900,BR,-47.75125,-15.63951
Quadra EQ 6 Área Especial 1,Brasília,DF,73340-531,BR,-47.88172,-15.78014
Setor de Mansões Quadra 49,Planaltina,GO,73752-162,BR,-47.5663,-15.43054
Quadra 9,Planaltina,GO,73752-419,BR,-47.61088,-15.43246
Rua Maísa Coutinho Anache,Campo Grande,MS,79081-702,BR,-54.6258,-20.50412
Rua Antonio da Silva Bartuira,Campo Grande,MS,79091-834,BR,-54.57436,-20.566
Rua Jacamar,Campo Grande,MS,79093-600,BR,-54.69073,-20.49933
Avenida Marinha,Campo Grande,MS,79097-210,BR,-54.67143,-20.53705
Rua Juvêncio Costa,Florianópolis,SC,88036-270,BR,-48.52287,-27.5878
Rua Presidente Somoza,Goiânia,GO,74350-835,BR,-49.32325,-16.73675
Quadra QR 410 Conjunto 10,Brasília,DF,72320-011,BR,-47.9270823076923,-15.761197692307693
Quadra 4 Conjunto E,Brasília,DF,72415-205,BR,-48.0683,-16.02621
Rua Recanto,Campo Grande,MS,79102-171,BR,-54.55659,-20.47967
Rua Benjamin Chadid,Campo Grande,MS,79106-280,BR,-54.70051,-20.44727
Rua Guanandi,Campo Grande,MS,79115-120,BR,-54.65329,-20.43516
Rua Comandante Átila Rodrigues Falcão,Três Lagoas,MS,79630-732,BR,-51.68077,-20.79485
Servidão Reduzino Vergilino Teixeira,Florianópolis,SC,88061-378,BR,-48.43146,-27.57484
Rua Souza Dutra,Florianópolis,SC,88070-493,BR,-48.58669,-27.59376
Rua RV 13,Goiânia,GO,74393-404,BR,-49.2057,-16.59946
Rua Vinte e Um de Março,Goiânia,GO,74425-122,BR,-49.27055,-16.69329
Rua RB 11 A,Goiânia,GO,74474-325,BR,-49.22901,-16.609735
Rua Miguel José Gomes,São João Del Rei,MG,36307-487,BR,-44.24373,-21.1347
Rua Francisca de Souza Peixoto,Cataguases,MG,36772-002,BR,-42.69516,-21.39335
Rua Geraldo Zanatelli,Varginha,MG,37005-025,BR,-45.40746,-21.54395
Rua José Honorato da Silva,Itajubá,MG,37501-624,BR,-45.44763,-22.41753
Rua Leontino Guedes Medina,Poços de Caldas,MG,37701-308,BR,-46.57108,-21.79002
Travessa Um,Poços de Caldas,MG,37704-780,BR,-46.59319,-21.80329
Rua Otília do Amaral,São Tomás de Aquino,MG,37960-970,BR,-47.09663,-20.78342
Rua da Carmosina,Salvador,BA,40315-110,BR,-38.48619,-12.96813
1ª Avenida São Roque,Salvador,BA,40355-623,BR,-38.49714,-12.95303
Travessa Tupinambás,Salvador,BA,40430-040,BR,-38.50123,-12.93261
Rua Luís Freitas,Salvador,BA,41207-490,BR,-38.45321,-12.9503
Rua da Horta,Salvador,BA,41211-600,BR,-38.44131,-12.95022
2ª Avenida Sérgio Cardoso,Salvador,BA,41214-560,BR,-38.49707,-12.94824
Caminho 17,Salvador,BA,41320-285,BR,-38.49759,-12.92475
Caminho 07-Setor 01,Salvador,BA,41340-490,BR,-38.50275,-12.98995
Avenida Vila Vintém,Salvador,BA,41630-176,BR,-38.36072,-12.94759
Avenida Concêntrica,Camaçari,BA,42809-051,BR,-38.32284,-12.69398
Rua Boa Vista,Feira de Santana,BA,44002-678,BR,-38.97219,-12.2554
Avenida José de Alencar,Vitória da Conquista,BA,45008-825,BR,-40.82294,-14.84806
Rua Abelard José Tolentino,Montes Claros,MG,39402-432,BR,-43.8536,-16.75229
Rua Cosme Antunes,Montes Claros,MG,39403-249,BR,-43.8732,-16.74767
Avenida Dois,Montes Claros,MG,39403-386,BR,-43.86767,-16.77573
Rua Morro Vermelho,Montes Claros,MG,39404-531,BR,-43.84756,-16.69993
,Vargem Grande do Rio Pardo,MG,39535-000,BR,-42.30958,-15.40297
Rua Adalberto Avelar,Divinópolis,MG,35500-803,BR,-44.86749,-20.13735
Rua Três,Divinópolis,MG,35502-229,BR,-44.81905,-20.15621
Rua Nelina Pereira dos Santos,Sete Lagoas,MG,35703-064,BR,-44.21025,-19.43994
Rua Acesita,João Monlevade,MG,35930-215,BR,-43.1694,-19.80271
Rua Z,Contagem,MG,32013-197,BR,-44.02287,-19.8668
Rua Geraldo Magela Belém,Contagem,MG,32017-200,BR,-44.0905,-19.91842
Rua João Penedo Alves,Contagem,MG,32113-487,BR,-44.02377,-19.83866
Rua Dois,Contagem,MG,32143-440,BR,-44.03139,-19.90868
Rua Nossa Senhora de Fátima,Betim,MG,32600-090,BR,-44.19321,-19.96819
Rua Maurício Bispo dos Santos,Betim,MG,32606-350,BR,-44.2131,-19.93428
Rua Sabiá,Betim,MG,32627-210,BR,-44.12568,-19.94948
Avenida Antônio Perto Siqueira,Betim,MG,32641-845,BR,-44.23035,-20.02847
Rua Newton Fonseca,Barbacena,MG,36201-046,BR,-43.78265,-21.22856
Rua F,Barbacena,MG,36202-398,BR,-43.75855,-21.20358
Rua José E. Santiago,São João Del Rei,MG,36300-231,BR,-44.26847,-21.1286
Rua Doutor Ludovice,Uberaba,MG,38026-050,BR,-47.9272,-19.76166
Rua Durvalina Quintino da Cruz,Uberaba,MG,38039-770,BR,-47.74254,-19.74476
Rua Lázaro Marques Caetano,Uberaba,MG,38082-056,BR,-47.89977,-19.74763
Rua Geraldo Theodoro da Silva,Araxá,MG,38181-223,BR,-46.91321,-19.59615
Rua Vinte e Oito,Ituiutaba,MG,38304-410,BR,-49.45628,-18.9833
Rua Antônio Caetano de Novais,Ituiutaba,MG,38307-277,BR,-49.49234,-18.98256
Praça Alice Gois Montes,Araguari,MG,38445-046,BR,-48.19496,-18.65098
Rua Odete Rodrigues da Silva,Araguari,MG,38445-258,BR,-48.17698,-18.63657
Rua Edson Nunes de Paula,Patos de Minas,MG,38701-638,BR,-46.5315,-18.5542
Rua Jorge Plínio Louzada,Patos de Minas,MG,38701-786,BR,-46.53753,-18.56526
Praça Madrid,Patos de Minas,MG,38705-106,BR,-46.50968,-18.59441
Rua Maria Bernardina Vieira,Patos de Minas,MG,38706-493,BR,-46.5081,-18.62486
Avenida Deputado Esteves Rodrigues,Montes Claros,MG,39400-912,BR,-43.87095,-16.7212
Travessa 25 de Novembro,Salvador,BA,40279-200,BR,-38.50286,-12.92236
Setor Habitacional IAPI Chácara 18,Brasília,DF,71081-255,BR,-47.92909,-15.77829
Rua 22,Luziânia,GO,72816-220,BR,-47.94039,-16.15114
Rua Astolfo do Amaral,Ponta Porã,MS,79900-630,BR,-55.72964,-22.49974
Rua Domingos Cássia,Ponta Porã,MS,79901-066,BR,-55.74146,-22.49059
Rua Iturama,Ponta Porã,MS,79902-168,BR,-55.72297,-22.52
Rua Maria Marques Rampelotti,Itajaí,SC,88317-518,BR,-48.74314,-26.87076
Rua José Lana,Itajaí,SC,88318-994,BR,-48.80863,-27.00413
Rua CP53,Goiânia,GO,74477-239,BR,-49.37291,-16.5858
Rua Campos Sales,Goiânia,GO,74483-150,BR,-49.35308,-16.68555
Rua 16,Luziânia,GO,72851-355,BR,-47.94039,-16.15114
Quadra 390,Luziânia,GO,72853-390,BR,-47.93262,-16.24311
Conjunto 02 HI Rua 6,Novo Gama,GO,72860-006,BR,-48.03173,-16.05888
Quadra 12,Valparaíso de Goiás,GO,72871-655,BR,-47.995403157894735,-16.072285263157895
Alameda Doutor Carlos de Carvalho,Curitiba,PR,80730-200,BR,-49.29192,-25.43773
Travessa Ney Azevedo,Curitiba,PR,81050-220,BR,-49.29388,-25.49029
Beco Elpídio Lobo,Navegantes,SC,88370-264,BR,-48.65096,-26.88427
Rua 251-A,Goiânia,GO,74610-171,BR,-49.30258,-16.60055
Rua 15,Goiânia,GO,74805-580,BR,-49.25921,-16.67475
Alameda Itajubá,Goiânia,GO,74815-130,BR,-49.22927,-16.72028
Rua G2,Goiânia,GO,74845-330,BR,-49.36346,-16.60495
Quadra SQ 19 Quadra 20,Cidade Ocidental,GO,72880-730,BR,-47.93792,-16.11363
Rua Orlando Molinari,Curitiba,PR,81860-264,BR,-49.24096,-25.54375
Rua Prudentópolis,Curitiba,PR,81880-030,BR,-49.2983,-25.53411
,Rio Rufino,SC,88658-000,BR,-49.78026,-27.86328
Rua Pau-brasil,Ponta Grossa,PR,84033-430,BR,-50.10686,-25.12871
Rua Octavio Maia,São Bento do Sul,SC,89290-126,BR,-49.37246,-26.27104
Rua Palmeiras - D,Chapecó,SC,89814-095,BR,-52.61945,-27.11574
Rua Imbituba,Manaus,AM,69099-220,BR,-59.95396,-3.04281
Rua Tiepolo,Manaus,AM,69099-311,BR,-60.05229,-3.10847
Rua Jatobá,Itacoatiara,AM,69101-682,BR,-58.44083,-3.14206
Quadra ARSE 62 Alameda Ceschiatti,Palmas,TO,77022-076,BR,-48.32879,-10.26672
Rua C,Gurupi,TO,77413-460,BR,-49.0953,-11.71411
Rua Anselmo José Tybuchewsky,Ponta Grossa,PR,84060-142,BR,-50.20422,-25.11518
Rua Manoel Lucindo,Porto Velho,RO,76811-298,BR,-63.87374,-8.80526
Rua Dom Pedro II,Porto Velho,RO,76820-136,BR,-63.88612,-8.75879
Rua Ananias Ferreira de Andrade,Porto Velho,RO,76824-356,BR,-63.86082,-8.74921
Rua Tucumã,Ariquemes,RO,76870-134,BR,-63.04259,-9.92693
Rua Jacob Klaine,Almirante Tamandaré,PR,83511-302,BR,-49.31215,-25.35903
Beco Veneza,Manaus,AM,69033-696,BR,-60.00806,-3.0472
Rua do Igarapé,Manaus,AM,69035-814,BR,-60.08814,-2.98482
Beco Santo Alberto,Manaus,AM,69036-586,BR,-59.93844,-3.02307
Rua Campos Sales,Manaus,AM,69040-660,BR,-60.04441,-3.08452
Avenida Sebastião Herculano de Souza,Jataí,GO,75802-202,BR,-51.7292,-17.92123
Rua 12A,Rio Verde,GO,75902-639,BR,-50.49075,-17.97036
Travessa Júlio Emerich,Rio Verde,GO,75906-140,BR,-50.92541,-17.79923
Rua 1,Rio Verde,GO,75909-575,BR,-50.92297,-17.7973
Avenida Green Park,Rio Verde,GO,75909-812,BR,-50.94483,-17.77708
Rua do Mogno,Rio Verde,GO,75910-036,BR,-50.90761,-17.76297
Travessa Aimoré,Porto Velho,RO,76801-322,BR,-63.87964,-8.72596
Rua Antônio Schuartz,Piraquara,PR,83301-565,BR,-49.08593,-25.46221
Rua Ceará,Piraquara,PR,83307-160,BR,-49.07537,-25.48029
Rua Carlos Haag,Rio do Sul,SC,89163-482,BR,-49.66419,-27.20359
Rua Lagoa Grande,Joinville,SC,89233-196,BR,-48.836,-26.38509
Conjunto da Cosama,Manaus,AM,69057-005,BR,-60.01173,-3.09267
Rua Ágata de Fogo,Manaus,AM,69075-483,BR,-59.94744,-3.12257
Rua Índio Creta,Manaus,AM,69082-120,BR,-59.97666,-3.08601
Rua Selezina dos Santos Lopes,Criciúma,SC,88807-135,BR,-49.44292,-28.70132
Rua 30,Aparecida de Goiânia,GO,74919-230,BR,-49.19352,-16.77414
Rua 133,Aparecida de Goiânia,GO,74965-340,BR,-49.19352,-16.77414
Rua Alberico Borges,Anápolis,GO,75143-260,BR,-48.97153,-16.33592
Rua Panamá,Itumbiara,GO,75513-564,BR,-49.22135,-18.40612
Rua Biraci Teixeira de Noronha,Curitiba,PR,82600-610,BR,-49.21463,-25.3971
Rua Tijuca,Curitiba,PR,82630-540,BR,-49.21881,-25.36894
Rua São Jerônimo da Serra,Curitiba,PR,82650-480,BR,-49.24429,-25.36902
Rua Estefânia,Curitiba,PR,82710-240,BR,-49.25755,-25.35783
Rua Pedro Eloy de Souza,Curitiba,PR,82820-130,BR,-49.20124,-25.42879
Rua Attílio Ramon,Curitiba,PR,82840-500,BR,-49.21916,-25.39334
Rua Guilherme Nunes Nogueira,Curitiba,PR,82900-180,BR,-49.22568,-25.44029
Rua Eduardo Engelhardt,Curitiba,PR,82970-240,BR,-49.19874,-25.4723
Rua Maria Lourdes Mendes Corrêa,Criciúma,SC,88816-725,BR,-49.3764,-28.73113
Rua Manoel Borges,Araranguá,SC,88904-360,BR,-49.48632,-28.96276
Rua Caçador,Blumenau,SC,89015-152,BR,-49.04652,-26.92806
Rua Samambaia,Blumenau,SC,89031-590,BR,-49.10617,-26.88769
Travessa Salvador,Manaus,AM,69006-820,BR,-59.92637,-3.05457
Travessa São Matheus,Manaus,AM,69021-055,BR,-60.03511,-3.00356
Rua Doutor Godofredo Lutz Luce,Jaraguá do Sul,SC,89258-190,BR,-49.07677,-26.49247
Rua Francisco Klosowski,Jaraguá do Sul,SC,89259-670,BR,-49.08838,-26.50952
Rua José Jelinsky,São Bento do Sul,SC,89280-583,BR,-49.36493,-26.24691
Rua Adalgiza Fleury,Manaus,AM,69086-480,BR,-59.9355,-3.0766
Rua Itanga,Manaus,AM,69086-552,BR,-59.93042,-3.07074
Rua Caxinguelê,Manaus,AM,69093-124,BR,-59.9924,-3.00591
Rua Palermo,Manaus,AM,69097-273,BR,-59.97183,-3.01022
Rua Villa Lobos,Ariquemes,RO,76873-782,BR,-63.02091,-9.89881
Rua Kaneji Kodama,Suzano,SP,08676-010,BR,-46.30561,-23.54505
Rua Cento e Cinqüenta,Suzano,SP,08690-780,BR,-46.31542,-23.50396
Rua Dinah Silveira de Queiroz,São Paulo,SP,05119-090,BR,-46.73631,-23.49319
Rua Durval Fernandes Chaves,São Paulo,SP,05136-230,BR,-46.74981,-23.50147
Rua Manoel Dias Amaro,São Paulo,SP,05388-060,BR,-46.56997,-23.54529
Rua da Consolação,São Paulo,SP,01416-902,BR,-46.64275,-23.54788
Avenida Conceição,São Paulo,SP,02072-001,BR,-46.60183,-23.50114
Rua Armando Paim,São Paulo,SP,02216-060,BR,-46.58021,-23.49489
Rua Joaquim de Souza Pacheco Filho,São Paulo,SP,02217-020,BR,-46.58168,-23.49018
Rua Mamorana,São Paulo,SP,08042-190,BR,-46.43669,-23.50961
Rua Mário Pati,São Paulo,SP,08051-350,BR,-46.47078,-23.512
Rua Doutor Gregório de Oliveira e Castro,São Paulo,SP,08090-390,BR,-46.42797,-23.47999
Rua Leonil,São Paulo,SP,08122-415,BR,-46.38448,-23.49335
Rua Candido Pereira de Castro,São Paulo,SP,08142-377,BR,-46.7089,-23.76775
Avenida Goiás,São Caetano do Sul,SP,09550-051,BR,-46.54974,-23.62137
Rua 24 de Maio,São Bernardo do Campo,SP,09625-000,BR,-46.51982,-23.77525
Rua Capitão Mor Antônio de Oliveira,São Bernardo do Campo,SP,09725-110,BR,-46.55911,-23.71219
Rua Antônio Pedrozelli,Diadema,SP,09910-030,BR,-46.6325,-23.69299
Rua Henrique Dias,Santos,SP,11013-230,BR,-46.31724,-23.93924
Rua Professor Alcides Luiz Alves,Santos,SP,11040-310,BR,-46.37994,-23.94385
Rua Pedro Alves,São Vicente,SP,11340-370,BR,-46.41481,-23.95284
Avenida Nossa Senhora das Graças,São Vicente,SP,11390-080,BR,-46.37633,-23.96531
Rua Nello Selmi Dei,São Paulo,SP,03908-010,BR,-46.50973,-23.58179
Rua Major-Brigadeiro Mário Castello Branco,São Paulo,SP,03908-020,BR,-46.50838,-23.58178
Rua Coronel Lisboa,São Paulo,SP,04020-041,BR,-46.63989,-23.59766
Rua Peter Lely,São Paulo,SP,04164-130,BR,-46.609,-23.62578
Rua Góis Raposo,São Paulo,SP,04182-900,BR,-46.59179,-23.64005
Rua General Lecor,São Paulo,SP,04213-020,BR,-46.60362,-23.59163
Rua São Paulo,São Paulo,SP,04236-080,BR,-46.74733,-23.41325
Travessa Francisco Semini,São Paulo,SP,04339-130,BR,-46.57875,-23.47748
Rua Santa Cruz,São Paulo,SP,05528-350,BR,-46.62233,-23.60053
Avenida Engenheiro Heitor Antônio Eiras Garcia,São Paulo,SP,05588-000,BR,-46.7707,-23.59981
Rua Sebastião Martins Pereira,São Paulo,SP,05762-260,BR,-46.7655,-23.64184
Rua Augusto Fabregas,São Paulo,SP,05820-110,BR,-46.74157,-23.66857
Rua Manuel Filx Fernandes,São Paulo,SP,05821-110,BR,-46.75153,-23.66826
Rua Paulo Lício Rizzo,Osasco,SP,06018-010,BR,-46.77991,-23.53796
Rua Doutor Theodoro de Souza Brandão,Osasco,SP,06045-150,BR,-46.79627,-23.57225
Avenida Internacional,Osasco,SP,06126-000,BR,-46.79482,-23.55373
Rua Santa Clara,Osasco,SP,06145-100,BR,-46.8003,-23.54746
,,,,BR,-51.75714,-13.64723
Rua Tartário,Carapicuíba,SP,06365-675,BR,-46.83325,-23.56516
Travessa Ulisses Guimaraes,Barueri,SP,06422-005,BR,-46.8444,-23.50412
Viela 23,Santana de Parnaíba,SP,06506-087,BR,-46.87225,-23.46747
Rua São Genaro,Santana de Parnaíba,SP,06516-215,BR,-46.91578,-23.44545
Rua Guilhermina Coelho,Itapevi,SP,06683-525,BR,-46.97763,-23.53423
Rua das Poesias,Cotia,SP,06702-335,BR,-46.92369,-23.58091
Rua Juruá,Cotia,SP,06704-762,BR,-46.90708,-23.57501
Rua Adália,Caraguatatuba,SP,11669-350,BR,-45.44372,-23.70173
Rua São Miguel,Caraguatatuba,SP,11671-230,BR,-45.44889,-23.67294
Rua Presidente Campos Salles,Mogi das Cruzes,SP,08770-210,BR,-46.19979,-23.52893
Rua Guararema,Santo André,SP,09185-700,BR,-46.53839,-23.68028
Rua General Osório,Santo André,SP,09190-440,BR,-46.5384,-23.67285
Rua Monte Azul,Embu das Artes,SP,06835-020,BR,-46.85519,-23.67018
Rua Araguacema,Guarulhos,SP,07083-110,BR,-46.54847,-23.43958
Rua Espírito Santo Dourado,Guarulhos,SP,07140-340,BR,-46.49334,-23.42418
Rua Eldorado,Guarulhos,SP,07272-260,BR,-46.41903,-23.46776
Avenida Deovair Cruz de Oliveira,Cajamar,SP,07776-435,BR,-46.83961,-23.33756
Rua Indiana,Cajamar,SP,07787-330,BR,-46.8263,-23.34081
Rua Edgard Máximo Zamboto,Franco da Rocha,SP,07810-160,BR,-46.7583,-23.31987
Rodovia Edgar Máximo Zamboto,Franco da Rocha,SP,07834-950,BR,-46.79312,-23.27346
Rua Leão IX,Francisco Morato,SP,07930-100,BR,-46.75251,-23.2582
Rua Colômbia,Francisco Morato,SP,07942-250,BR,-46.73883,-23.27226
Alameda Andrea,Cotia,SP,06726-670,BR,-47.03142,-23.66503
Rua João Reis Lacerda,Taboão da Serra,SP,06787-595,BR,-46.802,-23.62142
Travessa Wilson Marinho dos Santos,São Paulo,SP,04431-091,BR,-46.65623,-23.69118
Rua Santa Úrsula,São Paulo,SP,04459-320,BR,-46.67235,-23.69712
,Mirante do Paranapanema,SP,19260-000,BR,-51.92789,-22.28978
Rua Corino Martins de Oliveira,Ourinhos,SP,19915-488,BR,-49.85139,-22.96179
Rua Professor Carneiro Felipe,Rio de Janeiro,RJ,20750-260,BR,-43.29973,-22.87431
Rua Valinhos,Rio de Janeiro,RJ,20766-680,BR,-43.29568,-22.86369
Rua Professor Nicola Expositivo,Rio de Janeiro,RJ,20921-170,BR,-43.6519,-22.97581
Praça São Salvador,Rio de Janeiro,RJ,21042-290,BR,-43.18059,-22.9343
Rua Pindaucu,Rio de Janeiro,RJ,21051-415,BR,-43.2746,-22.87529
Rua Maurício Jacinto de Almeida,Itapetininga,SP,18209-320,BR,-48.0761,-23.58535
Travessa Santa Clara,Botucatu,SP,18601-121,BR,-48.48369,-22.88451
Praça João Cecilio,Botucatu,SP,18610-141,BR,-48.44386,-22.86432
Rua Antonio Raimundo,Botucatu,SP,18618-018,BR,-48.4021,-22.78058
Rua Jorge Lopes Dionísio,Botucatu,SP,18618-154,BR,-48.49383,-22.89802
Rua dos Pirangueiros,Botucatu,SP,18619-286,BR,-48.45621,-22.8905
Rua Padre Antônio D'Ângelo,São Paulo,SP,02516-040,BR,-46.65987,-23.50954
Travessa Erasmus Lapicida,São Paulo,SP,02990-325,BR,-46.65468,-23.56287
Rua Marcial,São Paulo,SP,03169-901,BR,-46.59632,-23.55224
Rua Dona Cândida,São Paulo,SP,03324-080,BR,-46.48427,-23.51444
Rua Odete Gomes Barreto,São Paulo,SP,03441-010,BR,-46.53831,-23.54588
Rua Helena Ricceli Luchetti,São Paulo,SP,03570-310,BR,-46.4865,-23.56847
Rua Francisco de Almada,São Paulo,SP,03579-280,BR,-46.49381,-23.56162
Rua Ararandéua,São Paulo,SP,03583-100,BR,-46.49466,-23.55803
Travessa Arthur Botelho,São Paulo,SP,03644-003,BR,-46.66167,-23.66068
Avenida Frederick Hoffmann,São Paulo,SP,03693-040,BR,-46.48027,-23.5294
Rua Marginal Um,Bragança Paulista,SP,12918-142,BR,-46.54089,-22.95134
Rua Antônio Lapa,Campinas,SP,13025-240,BR,-47.0486,-22.89871
Rua Agnaldo Macedo,Campinas,SP,13044-000,BR,-47.03807,-22.94119
Rua Geraldo Vicente,Campinas,SP,13049-429,BR,-47.0696,-22.96491
Rua Raimunda Ezilda de Gois,Campinas,SP,13056-193,BR,-47.14013,-22.98138
Rua Projetada E,Praia Grande,SP,11710-320,BR,-46.45542,-24.00001
Rua Waldomiro Berbare,Taubaté,SP,12061-440,BR,-45.55964,-23.00117
Rua Carina,São José dos Campos,SP,12230-440,BR,-45.88638,-23.22564
Rua Durvalina Costa da Silva,Caçapava,SP,12285-405,BR,-45.72088,-23.12637
Rua Veneza,Jacareí,SP,12307-310,BR,-45.95524,-23.29586
Rua Eurípedes Barsanulfo,Jacareí,SP,12312-370,BR,-45.97267,-23.30282
Rua Dirce de Almeida Fantini,Ribeirão Preto,SP,14070-732,BR,-47.79037,-21.10911
Rua Ernesto Matricardi,Sertãozinho,SP,14164-160,BR,-48.00229,-21.12339
Rua Antonieta Almada Miranda,Franca,SP,14404-004,BR,-47.38772,-20.57519
Rua Vanildo Cândido da Costa,Franca,SP,14404-226,BR,-47.36534,-20.59654
Rua José Emiliano dos Santos,Pindamonhangaba,SP,12411-180,BR,-45.44956,-22.93359
Rua Orondina Sathler Rodrigues,Pindamonhangaba,SP,12442-440,BR,-45.37777,-22.94271
Estrada Municipal,Guaratinguetá,SP,12503-780,BR,-45.15089,-22.79548
Rua Maria das Dores Gonçalves,Guaratinguetá,SP,12515-090,BR,-45.19723,-22.80489
Rua Plínio Moreira,Cruzeiro,SP,12712-060,BR,-44.95993,-22.56235
Rua Cassiano Ricardo,Santa Bárbara D'Oeste,SP,13457-003,BR,-47.40077,-22.7683
Praça Comendador Müller,Americana,SP,13465-289,BR,-47.32957,-22.74056
Rua Anísio Teixeira,Americana,SP,13474-461,BR,-47.29626,-22.70607
Rua Quadros Sobrinho,Limeira,SP,13480-223,BR,-47.39841,-22.56685
Rua Olavo Ferreira,Limeira,SP,13480-503,BR,-47.40534,-22.58159
Rua 23,Rio Claro,SP,13503-008,BR,-47.57893,-22.40347
Rua Bernardino Carvalho Grade,Campinas,SP,13092-450,BR,-47.06442,-22.90509
Rua Magdalena Kubiac Leoni,Paulínia,SP,13142-486,BR,-47.17131,-22.77518
Rua Manoel Vítor Diniz,Sumaré,SP,13181-660,BR,-47.18955,-22.84893
Rua Amor Perfeito,Hortolândia,SP,13187-051,BR,-47.20618,-22.90842
Avenida Amélia Latorre,Jundiaí,SP,13211-000,BR,-46.9217,-23.17992
Rua Ismael Antunes de Freitas,Jundiaí,SP,13211-644,BR,-46.91863,-23.18977
Rua Afonso Pena,Campo Limpo Paulista,SP,13236-060,BR,-46.7964,-23.20841
Rua Luiz Scavone,Itatiba,SP,13255-290,BR,-46.84264,-23.01281
Rua Maria Alice Consoline,Itatiba,SP,13256-140,BR,-46.85358,-23.01548
Rua Luiz Lazaretti,Valinhos,SP,13279-010,BR,-47.02777,-23.01171
Rua Pará,Itu,SP,13301-454,BR,-47.29052,-23.25675
Rua Tristão de Souza Costa,Itu,SP,13312-096,BR,-47.30856,-23.27946
Rua Vinte e Quatro de Maio,Indaiatuba,SP,13339-315,BR,-47.19609,-23.09381
Travessa João José Abdalla,Piracicaba,SP,13417-431,BR,-47.6374,-22.73882
Rua Lívio Ferracíu,Piracicaba,SP,13423-282,BR,-47.58294,-22.75773
Rua Alfredo Maluf,Santa Bárbara D'Oeste,SP,13450-227,BR,-47.41764,-22.75269
Rua Estácio Bernardino Seixas,Franca,SP,14407-272,BR,-47.42741,-20.50906
Avenida Doutor William Azzuz,Franca,SP,14409-400,BR,-47.398,-20.49656
Rua Geraldo Rodrigues de Souza,Franca,SP,14412-310,BR,-47.35866,-20.56724
Praça Doutor Cambaúva,Bebedouro,SP,14700-409,BR,-48.4924,-20.93556
Rua Geraldo Ferreira,Bebedouro,SP,14702-226,BR,-48.46401,-20.96967
Rua C-24,Barretos,SP,14781-468,BR,-48.57505,-20.55065
Avenida Hildebrando de Souza Filho,Barretos,SP,14784-339,BR,-48.56617,-20.57327
Rua José de Oliveira,Araras,SP,13606-411,BR,-47.36783,-22.35206
Rua Carlos Cerri,Araras,SP,13606-832,BR,-47.32892,-22.34991
Praça Ricieri Pechinatti,Araras,SP,13607-251,BR,-47.38504,-22.35821
Rua Bom Jesus,Pirassununga,SP,13634-048,BR,-47.43269,-22.00041
